{"type":"FeatureCollection","features":[{"type":"Feature","properties":{"name":"New York","state":"NY","fullName":"New York, NY","RegionID":6181},"geometry":{"type":"Point","coordinates":[-73.9808,40.7648]}},{"type":"Feature","properties":{"name":"Los Angeles","state":"CA","fullName":"Los Angeles, CA","RegionID":12447},"geometry":{"type":"Point","coordinates":[-118.2439,34.0544]}},{"type":"Feature","properties":{"name":"Chicago","state":"IL","fullName":"Chicago, IL","RegionID":17426},"geometry":{"type":"Point","coordinates":[-87.6244,41.8756]}},{"type":"Feature","properties":{"name":"Houston","state":"TX","fullName":"Houston, TX","RegionID":39051},"geometry":{"type":"Point","coordinates":[-95.3677,29.7589]}},{"type":"Feature","properties":{"name":"San Antonio","state":"TX","fullName":"San Antonio, TX","RegionID":6915},"geometry":{"type":"Point","coordinates":[-98.4951,29.4246]}},{"type":"Feature","properties":{"name":"Philadelphia","state":"PA","fullName":"Philadelphia, PA","RegionID":13271},"geometry":{"type":"Point","coordinates":[-75.1327,40.0115]}},{"type":"Feature","properties":{"name":"San Diego","state":"CA","fullName":"San Diego, CA","RegionID":54296},"geometry":{"type":"Point","coordinates":[-117.1628,32.7174]}},{"type":"Feature","properties":{"name":"Dallas","state":"TX","fullName":"Dallas, TX","RegionID":38128},"geometry":{"type":"Point","coordinates":[-96.7969,32.7763]}},{"type":"Feature","properties":{"name":"San Jose","state":"CA","fullName":"San Jose, CA","RegionID":33839},"geometry":{"type":"Point","coordinates":[122.064391,6.91188]}},{"type":"Feature","properties":{"name":"Austin","state":"TX","fullName":"Austin, TX","RegionID":10221},"geometry":{"type":"Point","coordinates":[-97.7437,30.2711]}},{"type":"Feature","properties":{"name":"Jacksonville","state":"FL","fullName":"Jacksonville, FL","RegionID":25290},"geometry":{"type":"Point","coordinates":[-81.6557,30.3322]}},{"type":"Feature","properties":{"name":"San Francisco","state":"CA","fullName":"San Francisco, CA","RegionID":20330},"geometry":{"type":"Point","coordinates":[-122.41143,37.794678]}},{"type":"Feature","properties":{"name":"Indianapolis","state":"IN","fullName":"Indianapolis, IN","RegionID":32149},"geometry":{"type":"Point","coordinates":[-86.1584,39.7683]}},{"type":"Feature","properties":{"name":"Charlotte","state":"NC","fullName":"Charlotte, NC","RegionID":24043},"geometry":{"type":"Point","coordinates":[-80.8431,35.2271]}},{"type":"Feature","properties":{"name":"Fort Worth","state":"TX","fullName":"Fort Worth, TX","RegionID":18172},"geometry":{"type":"Point","coordinates":[-97.3327,32.7532]}},{"type":"Feature","properties":{"name":"Columbus","state":"OH","fullName":"Columbus, OH","RegionID":10920},"geometry":{"type":"Point","coordinates":[-83.0007,39.9623]}},{"type":"Feature","properties":{"name":"Tucson","state":"AZ","fullName":"Tucson, AZ","RegionID":7481},"geometry":{"type":"Point","coordinates":[-110.9265,32.2217]}},{"type":"Feature","properties":{"name":"Louisville","state":"KY","fullName":"Louisville, KY","RegionID":12455},"geometry":{"type":"Point","coordinates":[-85.7594,38.2542]}},{"type":"Feature","properties":{"name":"El Paso","state":"TX","fullName":"El Paso, TX","RegionID":17933},"geometry":{"type":"Point","coordinates":[-106.2221,31.8064]}},{"type":"Feature","properties":{"name":"Denver","state":"CO","fullName":"Denver, CO","RegionID":11093},"geometry":{"type":"Point","coordinates":[-104.9653,39.7348]}},{"type":"Feature","properties":{"name":"Seattle","state":"WA","fullName":"Seattle, WA","RegionID":16037},"geometry":{"type":"Point","coordinates":[-122.3301,47.6038]}},{"type":"Feature","properties":{"name":"Memphis","state":"TN","fullName":"Memphis, TN","RegionID":32811},"geometry":{"type":"Point","coordinates":[-90.0516,35.149]}},{"type":"Feature","properties":{"name":"Boston","state":"MA","fullName":"Boston, MA","RegionID":44269},"geometry":{"type":"Point","coordinates":[-71.0596,42.3605]}},{"type":"Feature","properties":{"name":"Washington","state":"DC","fullName":"Washington, DC","RegionID":41568},"geometry":{"type":"Point","coordinates":[-77.0366,38.895]}},{"type":"Feature","properties":{"name":"Nashville","state":"TN","fullName":"Nashville, TN","RegionID":6118},"geometry":{"type":"Point","coordinates":[-86.7744,36.1622]}},{"type":"Feature","properties":{"name":"Portland","state":"OR","fullName":"Portland, OR","RegionID":13373},"geometry":{"type":"Point","coordinates":[-122.74264,45.425552]}},{"type":"Feature","properties":{"name":"Sacramento","state":"CA","fullName":"Sacramento, CA","RegionID":20288},"geometry":{"type":"Point","coordinates":[-121.4939328,38.581021]}},{"type":"Feature","properties":{"name":"Baltimore","state":"MD","fullName":"Baltimore, MD","RegionID":3523},"geometry":{"type":"Point","coordinates":[-76.6108,39.2909]}},{"type":"Feature","properties":{"name":"Milwaukee","state":"WI","fullName":"Milwaukee, WI","RegionID":5976},"geometry":{"type":"Point","coordinates":[-87.9735,43.0115]}},{"type":"Feature","properties":{"name":"Fresno","state":"CA","fullName":"Fresno, CA","RegionID":18203},"geometry":{"type":"Point","coordinates":[-119.8155,36.6714]}},{"type":"Feature","properties":{"name":"Omaha","state":"NE","fullName":"Omaha, NE","RegionID":40152},"geometry":{"type":"Point","coordinates":[-95.9379,41.2587]}},{"type":"Feature","properties":{"name":"Albuquerque","state":"NM","fullName":"Albuquerque, NM","RegionID":23429},"geometry":{"type":"Point","coordinates":[-106.651,35.0841]}},{"type":"Feature","properties":{"name":"Oklahoma City","state":"OK","fullName":"Oklahoma City, OK","RegionID":33225},"geometry":{"type":"Point","coordinates":[-97.5171,35.473]}},{"type":"Feature","properties":{"name":"Raleigh","state":"NC","fullName":"Raleigh, NC","RegionID":54047},"geometry":{"type":"Point","coordinates":[-78.6391,35.7804]}},{"type":"Feature","properties":{"name":"Atlanta","state":"GA","fullName":"Atlanta, GA","RegionID":37211},"geometry":{"type":"Point","coordinates":[-84.3902,33.7491]}},{"type":"Feature","properties":{"name":"Kansas City","state":"MO","fullName":"Kansas City, MO","RegionID":18795},"geometry":{"type":"Point","coordinates":[-94.563,39.0845]}},{"type":"Feature","properties":{"name":"Long Beach","state":"CA","fullName":"Long Beach, CA","RegionID":46298},"geometry":{"type":"Point","coordinates":[-118.1885,33.7775]}},{"type":"Feature","properties":{"name":"Colorado Springs","state":"CO","fullName":"Colorado Springs, CO","RegionID":4172},"geometry":{"type":"Point","coordinates":[-104.8253,38.834]}},{"type":"Feature","properties":{"name":"Virginia Beach","state":"VA","fullName":"Virginia Beach, VA","RegionID":41515},"geometry":{"type":"Point","coordinates":[-75.9774,36.853]}},{"type":"Feature","properties":{"name":"Miami","state":"FL","fullName":"Miami, FL","RegionID":12700},"geometry":{"type":"Point","coordinates":[-80.1937,25.7743]}},{"type":"Feature","properties":{"name":"Oakland","state":"CA","fullName":"Oakland, CA","RegionID":13072},"geometry":{"type":"Point","coordinates":[-122.2714,37.8045]}},{"type":"Feature","properties":{"name":"Tulsa","state":"OK","fullName":"Tulsa, OK","RegionID":20859},"geometry":{"type":"Point","coordinates":[-95.9251,36.1012]}},{"type":"Feature","properties":{"name":"Minneapolis","state":"MN","fullName":"Minneapolis, MN","RegionID":5983},"geometry":{"type":"Point","coordinates":[-93.2655,44.9773]}},{"type":"Feature","properties":{"name":"Honolulu","state":"HI","fullName":"Honolulu, HI","RegionID":18615},"geometry":{"type":"Point","coordinates":[-157.8557,21.3045]}},{"type":"Feature","properties":{"name":"Cleveland","state":"OH","fullName":"Cleveland, OH","RegionID":24115},"geometry":{"type":"Point","coordinates":[-81.6934,41.5052]}},{"type":"Feature","properties":{"name":"New Orleans","state":"LA","fullName":"New Orleans, LA","RegionID":19594},"geometry":{"type":"Point","coordinates":[-90.0701,29.9499]}},{"type":"Feature","properties":{"name":"Arlington","state":"TX","fullName":"Arlington, TX","RegionID":50763},"geometry":{"type":"Point","coordinates":[-97.1071,32.7356]}},{"type":"Feature","properties":{"name":"Baton Rouge","state":"LA","fullName":"Baton Rouge, LA","RegionID":44055},"geometry":{"type":"Point","coordinates":[-91.1546,30.4507]}},{"type":"Feature","properties":{"name":"Wichita","state":"KS","fullName":"Wichita, KS","RegionID":7929},"geometry":{"type":"Point","coordinates":[-97.3375,37.6922]}},{"type":"Feature","properties":{"name":"Knoxville","state":"TN","fullName":"Knoxville, TN","RegionID":25428},"geometry":{"type":"Point","coordinates":[-83.921,35.9604]}},{"type":"Feature","properties":{"name":"Tampa","state":"FL","fullName":"Tampa, FL","RegionID":41176},"geometry":{"type":"Point","coordinates":[-82.4584,27.9478]}},{"type":"Feature","properties":{"name":"Aurora","state":"CO","fullName":"Aurora, CO","RegionID":16846},"geometry":{"type":"Point","coordinates":[-104.8319,39.7294]}},{"type":"Feature","properties":{"name":"Riverside","state":"CA","fullName":"Riverside, CA","RegionID":47401},"geometry":{"type":"Point","coordinates":[6.145481,46.204838]}},{"type":"Feature","properties":{"name":"Bakersfield","state":"CA","fullName":"Bakersfield, CA","RegionID":3506},"geometry":{"type":"Point","coordinates":[-119.0195,35.3739]}},{"type":"Feature","properties":{"name":"Pittsburgh","state":"PA","fullName":"Pittsburgh, PA","RegionID":26529},"geometry":{"type":"Point","coordinates":[-79.9901,40.4417]}},{"type":"Feature","properties":{"name":"Cincinnati","state":"OH","fullName":"Cincinnati, OH","RegionID":4099},"geometry":{"type":"Point","coordinates":[-84.5125,39.1015]}},{"type":"Feature","properties":{"name":"Anaheim","state":"CA","fullName":"Anaheim, CA","RegionID":16764},"geometry":{"type":"Point","coordinates":[-117.9117,33.8348]}},{"type":"Feature","properties":{"name":"Columbia","state":"SC","fullName":"Columbia, SC","RegionID":4174},"geometry":{"type":"Point","coordinates":[-95.71682,31.779917]}},{"type":"Feature","properties":{"name":"Marietta","state":"GA","fullName":"Marietta, GA","RegionID":12562},"geometry":{"type":"Point","coordinates":[-84.5496,33.9528]}},{"type":"Feature","properties":{"name":"Corpus Christi","state":"TX","fullName":"Corpus Christi, TX","RegionID":38025},"geometry":{"type":"Point","coordinates":[-97.3956,27.8003]}},{"type":"Feature","properties":{"name":"Saint Louis","state":"MO","fullName":"Saint Louis, MO","RegionID":6891},"geometry":{"type":"Point","coordinates":[-90.19,38.63]}},{"type":"Feature","properties":{"name":"Lexington","state":"KY","fullName":"Lexington, KY","RegionID":25574},"geometry":{"type":"Point","coordinates":[-84.497,38.0464]}},{"type":"Feature","properties":{"name":"Fort Wayne","state":"IN","fullName":"Fort Wayne, IN","RegionID":18170},"geometry":{"type":"Point","coordinates":[-85.1386,41.08]}},{"type":"Feature","properties":{"name":"Vancouver","state":"WA","fullName":"Vancouver, WA","RegionID":48215},"geometry":{"type":"Point","coordinates":[-122.6745,45.6307]}},{"type":"Feature","properties":{"name":"Silver Spring","state":"MD","fullName":"Silver Spring, MD","RegionID":7081},"geometry":{"type":"Point","coordinates":[-77.0289,38.9959]}},{"type":"Feature","properties":{"name":"Toledo","state":"OH","fullName":"Toledo, OH","RegionID":34303},"geometry":{"type":"Point","coordinates":[-83.5127,41.6787]}},{"type":"Feature","properties":{"name":"Anchorage","state":"AK","fullName":"Anchorage, AK","RegionID":23482},"geometry":{"type":"Point","coordinates":[-149.8949,61.2163]}},{"type":"Feature","properties":{"name":"Saint Paul","state":"MN","fullName":"Saint Paul, MN","RegionID":20313},"geometry":{"type":"Point","coordinates":[-93.1015,44.9504]}},{"type":"Feature","properties":{"name":"Durham","state":"NC","fullName":"Durham, NC","RegionID":24457},"geometry":{"type":"Point","coordinates":[-78.8986,35.994]}},{"type":"Feature","properties":{"name":"Tallahassee","state":"FL","fullName":"Tallahassee, FL","RegionID":47945},"geometry":{"type":"Point","coordinates":[-84.2809,30.4381]}},{"type":"Feature","properties":{"name":"Stockton","state":"CA","fullName":"Stockton, CA","RegionID":7266},"geometry":{"type":"Point","coordinates":[-121.2908,37.9577]}},{"type":"Feature","properties":{"name":"Plano","state":"TX","fullName":"Plano, TX","RegionID":53915},"geometry":{"type":"Point","coordinates":[-96.6925,33.0137]}},{"type":"Feature","properties":{"name":"Newark","state":"NJ","fullName":"Newark, NJ","RegionID":12970},"geometry":{"type":"Point","coordinates":[-74.1724,40.7357]}},{"type":"Feature","properties":{"name":"Lincoln","state":"NE","fullName":"Lincoln, NE","RegionID":32503},"geometry":{"type":"Point","coordinates":[-96.6674,40.8001]}},{"type":"Feature","properties":{"name":"Lubbock","state":"TX","fullName":"Lubbock, TX","RegionID":53060},"geometry":{"type":"Point","coordinates":[-101.8552,33.5779]}},{"type":"Feature","properties":{"name":"Jersey City","state":"NJ","fullName":"Jersey City, NJ","RegionID":25320},"geometry":{"type":"Point","coordinates":[-74.0776,40.7282]}},{"type":"Feature","properties":{"name":"Reno","state":"NV","fullName":"Reno, NV","RegionID":13478},"geometry":{"type":"Point","coordinates":[-119.8137,39.5293]}},{"type":"Feature","properties":{"name":"Buffalo","state":"NY","fullName":"Buffalo, NY","RegionID":17222},"geometry":{"type":"Point","coordinates":[-78.877,42.9333]}},{"type":"Feature","properties":{"name":"Mobile","state":"AL","fullName":"Mobile, AL","RegionID":32900},"geometry":{"type":"Point","coordinates":[-88.1946,30.6488]}},{"type":"Feature","properties":{"name":"Hialeah","state":"FL","fullName":"Hialeah, FL","RegionID":25104},"geometry":{"type":"Point","coordinates":[-80.2781,25.8576]}},{"type":"Feature","properties":{"name":"San Bernardino","state":"CA","fullName":"San Bernardino, CA","RegionID":20328},"geometry":{"type":"Point","coordinates":[-117.2898,34.1083]}},{"type":"Feature","properties":{"name":"Chula Vista","state":"CA","fullName":"Chula Vista, CA","RegionID":51405},"geometry":{"type":"Point","coordinates":[-117.0842,32.6401]}},{"type":"Feature","properties":{"name":"Saint Petersburg","state":"FL","fullName":"Saint Petersburg, FL","RegionID":26922},"geometry":{"type":"Point","coordinates":[-82.65,27.77]}},{"type":"Feature","properties":{"name":"Lawrenceville","state":"GA","fullName":"Lawrenceville, GA","RegionID":5573},"geometry":{"type":"Point","coordinates":[-83.988,33.9562]}},{"type":"Feature","properties":{"name":"Winston-Salem","state":"NC","fullName":"Winston-Salem, NC","RegionID":41760},"geometry":{"type":"Point","coordinates":[-80.2442,36.0999]}},{"type":"Feature","properties":{"name":"Spokane","state":"WA","fullName":"Spokane, WA","RegionID":20604},"geometry":{"type":"Point","coordinates":[-117.4247,47.6589]}},{"type":"Feature","properties":{"name":"Madison","state":"WI","fullName":"Madison, WI","RegionID":398849},"geometry":{"type":"Point","coordinates":[-89.3838,43.0748]}},{"type":"Feature","properties":{"name":"Norfolk","state":"VA","fullName":"Norfolk, VA","RegionID":6210},"geometry":{"type":"Point","coordinates":[-76.2916,36.8465]}},{"type":"Feature","properties":{"name":"Scottsdale","state":"AZ","fullName":"Scottsdale, AZ","RegionID":54346},"geometry":{"type":"Point","coordinates":[-111.8992,33.5091]}},{"type":"Feature","properties":{"name":"Fayetteville","state":"NC","fullName":"Fayetteville, NC","RegionID":52001},"geometry":{"type":"Point","coordinates":[-78.8787,35.053]}},{"type":"Feature","properties":{"name":"Boise","state":"ID","fullName":"Boise, ID","RegionID":3737},"geometry":{"type":"Point","coordinates":[-116.2044,43.615]}},{"type":"Feature","properties":{"name":"Irvine","state":"CA","fullName":"Irvine, CA","RegionID":52650},"geometry":{"type":"Point","coordinates":[-117.826,33.6857]}},{"type":"Feature","properties":{"name":"Laredo","state":"TX","fullName":"Laredo, TX","RegionID":52893},"geometry":{"type":"Point","coordinates":[-99.5089,27.5061]}},{"type":"Feature","properties":{"name":"Sarasota","state":"FL","fullName":"Sarasota, FL","RegionID":20362},"geometry":{"type":"Point","coordinates":[-82.5307,27.3364]}},{"type":"Feature","properties":{"name":"Chesapeake","state":"VA","fullName":"Chesapeake, VA","RegionID":44564},"geometry":{"type":"Point","coordinates":[-76.2467,36.7184]}},{"type":"Feature","properties":{"name":"Fort Myers","state":"FL","fullName":"Fort Myers, FL","RegionID":31614},"geometry":{"type":"Point","coordinates":[-81.8723,26.6406]}},{"type":"Feature","properties":{"name":"Garland","state":"TX","fullName":"Garland, TX","RegionID":18251},"geometry":{"type":"Point","coordinates":[-96.6389,32.9126]}},{"type":"Feature","properties":{"name":"Fremont","state":"CA","fullName":"Fremont, CA","RegionID":11540},"geometry":{"type":"Point","coordinates":[-121.9886,37.5483]}},{"type":"Feature","properties":{"name":"Fontana","state":"CA","fullName":"Fontana, CA","RegionID":24741},"geometry":{"type":"Point","coordinates":[-117.435,34.0922]}},{"type":"Feature","properties":{"name":"Irving","state":"TX","fullName":"Irving, TX","RegionID":12065},"geometry":{"type":"Point","coordinates":[-96.9489,32.814]}},{"type":"Feature","properties":{"name":"Arlington","state":"VA","fullName":"Arlington, VA","RegionID":30258},"geometry":{"type":"Point","coordinates":[-77.0893,38.8769]}},{"type":"Feature","properties":{"name":"Springfield","state":"MO","fullName":"Springfield, MO","RegionID":7222},"geometry":{"type":"Point","coordinates":[-93.2983,37.2153]}},{"type":"Feature","properties":{"name":"Birmingham","state":"AL","fullName":"Birmingham, AL","RegionID":10417},"geometry":{"type":"Point","coordinates":[-86.8024,33.5207]}},{"type":"Feature","properties":{"name":"Santa Rosa","state":"CA","fullName":"Santa Rosa, CA","RegionID":26967},"geometry":{"type":"Point","coordinates":[-56.03333,-34.5]}},{"type":"Feature","properties":{"name":"Greenville","state":"SC","fullName":"Greenville, SC","RegionID":24960},"geometry":{"type":"Point","coordinates":[-82.3985,34.8514]}},{"type":"Feature","properties":{"name":"Oxnard","state":"CA","fullName":"Oxnard, CA","RegionID":13150},"geometry":{"type":"Point","coordinates":[-119.1771,34.1975]}},{"type":"Feature","properties":{"name":"Richmond","state":"VA","fullName":"Richmond, VA","RegionID":6752},"geometry":{"type":"Point","coordinates":[-77.4343,37.5385]}},{"type":"Feature","properties":{"name":"Des Moines","state":"IA","fullName":"Des Moines, IA","RegionID":17759},"geometry":{"type":"Point","coordinates":[-93.6037,41.5911]}},{"type":"Feature","properties":{"name":"Ocala","state":"FL","fullName":"Ocala, FL","RegionID":53673},"geometry":{"type":"Point","coordinates":[-82.1401,29.1872]}},{"type":"Feature","properties":{"name":"Boca Raton","state":"FL","fullName":"Boca Raton, FL","RegionID":10477},"geometry":{"type":"Point","coordinates":[-80.0831,26.3587]}},{"type":"Feature","properties":{"name":"Bradenton","state":"FL","fullName":"Bradenton, FL","RegionID":44282},"geometry":{"type":"Point","coordinates":[-82.5748,27.4989]}},{"type":"Feature","properties":{"name":"Rochester","state":"NY","fullName":"Rochester, NY","RegionID":13550},"geometry":{"type":"Point","coordinates":[-77.6152,43.1573]}},{"type":"Feature","properties":{"name":"Montgomery","state":"AL","fullName":"Montgomery, AL","RegionID":32931},"geometry":{"type":"Point","coordinates":[-77.6156999,43.1563032]}},{"type":"Feature","properties":{"name":"Corona","state":"CA","fullName":"Corona, CA","RegionID":24225},"geometry":{"type":"Point","coordinates":[-117.5664,33.8753]}},{"type":"Feature","properties":{"name":"Oceanside","state":"CA","fullName":"Oceanside, CA","RegionID":6285},"geometry":{"type":"Point","coordinates":[-117.3795,33.1959]}},{"type":"Feature","properties":{"name":"Tacoma","state":"WA","fullName":"Tacoma, WA","RegionID":27362},"geometry":{"type":"Point","coordinates":[-122.4399,47.2496]}},{"type":"Feature","properties":{"name":"Grand Rapids","state":"MI","fullName":"Grand Rapids, MI","RegionID":11671},"geometry":{"type":"Point","coordinates":[-85.6679,42.9632]}},{"type":"Feature","properties":{"name":"Gainesville","state":"FL","fullName":"Gainesville, FL","RegionID":24821},"geometry":{"type":"Point","coordinates":[-82.3248,29.6519]}},{"type":"Feature","properties":{"name":"Yonkers","state":"NY","fullName":"Yonkers, NY","RegionID":34937},"geometry":{"type":"Point","coordinates":[-73.8987,40.9312]}},{"type":"Feature","properties":{"name":"Shreveport","state":"LA","fullName":"Shreveport, LA","RegionID":40897},"geometry":{"type":"Point","coordinates":[-93.7652,32.5222]}},{"type":"Feature","properties":{"name":"Glendale","state":"CA","fullName":"Glendale, CA","RegionID":45457},"geometry":{"type":"Point","coordinates":[-118.2484,34.1423]}},{"type":"Feature","properties":{"name":"Akron","state":"OH","fullName":"Akron, OH","RegionID":30141},"geometry":{"type":"Point","coordinates":[-81.5185,41.0831]}},{"type":"Feature","properties":{"name":"Aurora","state":"IL","fullName":"Aurora, IL","RegionID":10215},"geometry":{"type":"Point","coordinates":[-88.3201,41.7606]}},{"type":"Feature","properties":{"name":"Huntington Beach","state":"CA","fullName":"Huntington Beach, CA","RegionID":25218},"geometry":{"type":"Point","coordinates":[-118,33.6781]}},{"type":"Feature","properties":{"name":"Eugene","state":"OR","fullName":"Eugene, OR","RegionID":38438},"geometry":{"type":"Point","coordinates":[-123.0951,44.0505]}},{"type":"Feature","properties":{"name":"Salt Lake City","state":"UT","fullName":"Salt Lake City, UT","RegionID":6909},"geometry":{"type":"Point","coordinates":[-111.8904,40.767]}},{"type":"Feature","properties":{"name":"Port Saint Lucie","state":"FL","fullName":"Port Saint Lucie, FL","RegionID":33501},"geometry":{"type":"Point","coordinates":[-80.3503,27.2939]}},{"type":"Feature","properties":{"name":"Salinas","state":"CA","fullName":"Salinas, CA","RegionID":54288},"geometry":{"type":"Point","coordinates":[-121.656,36.6777]}},{"type":"Feature","properties":{"name":"Amarillo","state":"TX","fullName":"Amarillo, TX","RegionID":16753},"geometry":{"type":"Point","coordinates":[-101.8338,35.2072]}},{"type":"Feature","properties":{"name":"Little Rock","state":"AR","fullName":"Little Rock, AR","RegionID":52998},"geometry":{"type":"Point","coordinates":[-92.2896,34.7465]}},{"type":"Feature","properties":{"name":"Fort Collins","state":"CO","fullName":"Fort Collins, CO","RegionID":4764},"geometry":{"type":"Point","coordinates":[-105.0668,40.5509]}},{"type":"Feature","properties":{"name":"Hayward","state":"CA","fullName":"Hayward, CA","RegionID":18518},"geometry":{"type":"Point","coordinates":[-122.0808,37.6688]}},{"type":"Feature","properties":{"name":"Brownsville","state":"TX","fullName":"Brownsville, TX","RegionID":51167},"geometry":{"type":"Point","coordinates":[-97.4891,25.914]}},{"type":"Feature","properties":{"name":"Rockford","state":"IL","fullName":"Rockford, IL","RegionID":47426},"geometry":{"type":"Point","coordinates":[-89.094,42.2714]}},{"type":"Feature","properties":{"name":"Evansville","state":"IN","fullName":"Evansville, IN","RegionID":31471},"geometry":{"type":"Point","coordinates":[-87.5558,37.9748]}},{"type":"Feature","properties":{"name":"Worcester","state":"MA","fullName":"Worcester, MA","RegionID":14724},"geometry":{"type":"Point","coordinates":[-71.8023,42.2626]}},{"type":"Feature","properties":{"name":"Overland Park","state":"KS","fullName":"Overland Park, KS","RegionID":40202},"geometry":{"type":"Point","coordinates":[-94.6708,38.9822]}},{"type":"Feature","properties":{"name":"Lancaster","state":"CA","fullName":"Lancaster, CA","RegionID":5534},"geometry":{"type":"Point","coordinates":[-2.804728,54.049572]}},{"type":"Feature","properties":{"name":"Garden Grove","state":"CA","fullName":"Garden Grove, CA","RegionID":24832},"geometry":{"type":"Point","coordinates":[-117.9464,33.7746]}},{"type":"Feature","properties":{"name":"Grand Prairie","state":"TX","fullName":"Grand Prairie, TX","RegionID":31821},"geometry":{"type":"Point","coordinates":[-96.9978,32.746]}},{"type":"Feature","properties":{"name":"Escondido","state":"CA","fullName":"Escondido, CA","RegionID":11337},"geometry":{"type":"Point","coordinates":[-117.0815,33.1217]}},{"type":"Feature","properties":{"name":"Providence","state":"RI","fullName":"Providence, RI","RegionID":26637},"geometry":{"type":"Point","coordinates":[-71.4128,41.824]}},{"type":"Feature","properties":{"name":"Fort Lauderdale","state":"FL","fullName":"Fort Lauderdale, FL","RegionID":31606},"geometry":{"type":"Point","coordinates":[-80.1434,26.1223]}},{"type":"Feature","properties":{"name":"Ontario","state":"CA","fullName":"Ontario, CA","RegionID":13108},"geometry":{"type":"Point","coordinates":[-85,50]}},{"type":"Feature","properties":{"name":"Sioux Falls","state":"SD","fullName":"Sioux Falls, SD","RegionID":7087},"geometry":{"type":"Point","coordinates":[-96.7003,43.55]}},{"type":"Feature","properties":{"name":"Charleston","state":"SC","fullName":"Charleston, SC","RegionID":4054},"geometry":{"type":"Point","coordinates":[-79.9403,32.7876]}},{"type":"Feature","properties":{"name":"Kissimmee","state":"FL","fullName":"Kissimmee, FL","RegionID":18847},"geometry":{"type":"Point","coordinates":[-81.4078,28.292]}},{"type":"Feature","properties":{"name":"Clarksville","state":"TN","fullName":"Clarksville, TN","RegionID":10843},"geometry":{"type":"Point","coordinates":[-87.3099,36.5286]}},{"type":"Feature","properties":{"name":"Chattanooga","state":"TN","fullName":"Chattanooga, TN","RegionID":37837},"geometry":{"type":"Point","coordinates":[-85.3097,35.0456]}},{"type":"Feature","properties":{"name":"Tempe","state":"AZ","fullName":"Tempe, AZ","RegionID":47958},"geometry":{"type":"Point","coordinates":[-111.9094,33.4144]}},{"type":"Feature","properties":{"name":"Murfreesboro","state":"TN","fullName":"Murfreesboro, TN","RegionID":19523},"geometry":{"type":"Point","coordinates":[-86.392,35.846]}},{"type":"Feature","properties":{"name":"Rancho Cucamonga","state":"CA","fullName":"Rancho Cucamonga, CA","RegionID":40492},"geometry":{"type":"Point","coordinates":[-117.5752,34.1033]}},{"type":"Feature","properties":{"name":"Killeen","state":"TX","fullName":"Killeen, TX","RegionID":5424},"geometry":{"type":"Point","coordinates":[-97.7278,31.1171]}},{"type":"Feature","properties":{"name":"Fredericksburg","state":"VA","fullName":"Fredericksburg, VA","RegionID":11529},"geometry":{"type":"Point","coordinates":[-77.4834,38.2968]}},{"type":"Feature","properties":{"name":"Palmdale","state":"CA","fullName":"Palmdale, CA","RegionID":40227},"geometry":{"type":"Point","coordinates":[-118.1171,34.5793]}},{"type":"Feature","properties":{"name":"Cape Coral","state":"FL","fullName":"Cape Coral, FL","RegionID":30742},"geometry":{"type":"Point","coordinates":[-81.9807,26.6059]}},{"type":"Feature","properties":{"name":"Savannah","state":"GA","fullName":"Savannah, GA","RegionID":47584},"geometry":{"type":"Point","coordinates":[-81.0998,32.0835]}},{"type":"Feature","properties":{"name":"Newport News","state":"VA","fullName":"Newport News, VA","RegionID":26140},"geometry":{"type":"Point","coordinates":[-76.4505,37.0168]}},{"type":"Feature","properties":{"name":"El Cajon","state":"CA","fullName":"El Cajon, CA","RegionID":38333},"geometry":{"type":"Point","coordinates":[-116.9625,32.7948]}},{"type":"Feature","properties":{"name":"Jackson","state":"MS","fullName":"Jackson, MS","RegionID":32179},"geometry":{"type":"Point","coordinates":[-90.1848,32.299]}},{"type":"Feature","properties":{"name":"Elk Grove","state":"CA","fullName":"Elk Grove, CA","RegionID":17950},"geometry":{"type":"Point","coordinates":[-121.3716,38.4088]}},{"type":"Feature","properties":{"name":"Naperville","state":"IL","fullName":"Naperville, IL","RegionID":39931},"geometry":{"type":"Point","coordinates":[-88.1479,41.7729]}},{"type":"Feature","properties":{"name":"Fairfax","state":"VA","fullName":"Fairfax, VA","RegionID":4655},"geometry":{"type":"Point","coordinates":[-77.3064,38.8462]}},{"type":"Feature","properties":{"name":"Topeka","state":"KS","fullName":"Topeka, KS","RegionID":41256},"geometry":{"type":"Point","coordinates":[-95.6776,39.049]}},{"type":"Feature","properties":{"name":"McKinney","state":"TX","fullName":"McKinney, TX","RegionID":32783},"geometry":{"type":"Point","coordinates":[-96.6154,33.1976]}},{"type":"Feature","properties":{"name":"Lafayette","state":"LA","fullName":"Lafayette, LA","RegionID":39312},"geometry":{"type":"Point","coordinates":[-92.0198,30.2241]}},{"type":"Feature","properties":{"name":"Sugar Land","state":"TX","fullName":"Sugar Land, TX","RegionID":41114},"geometry":{"type":"Point","coordinates":[-95.6349,29.6197]}},{"type":"Feature","properties":{"name":"Pembroke Pines","state":"FL","fullName":"Pembroke Pines, FL","RegionID":19892},"geometry":{"type":"Point","coordinates":[-80.34,26.01]}},{"type":"Feature","properties":{"name":"Edmond","state":"OK","fullName":"Edmond, OK","RegionID":38328},"geometry":{"type":"Point","coordinates":[-97.4649,35.6571]}},{"type":"Feature","properties":{"name":"Pueblo","state":"CO","fullName":"Pueblo, CO","RegionID":47250},"geometry":{"type":"Point","coordinates":[-104.6091,38.2544]}},{"type":"Feature","properties":{"name":"Salem","state":"OR","fullName":"Salem, OR","RegionID":20317},"geometry":{"type":"Point","coordinates":[-123.0331,44.9392]}},{"type":"Feature","properties":{"name":"Springfield","state":"MA","fullName":"Springfield, MA","RegionID":7221},"geometry":{"type":"Point","coordinates":[-72.5898,42.1015]}},{"type":"Feature","properties":{"name":"Spring","state":"TX","fullName":"Spring, TX","RegionID":7204},"geometry":{"type":"Point","coordinates":[-95.4173,30.0799]}},{"type":"Feature","properties":{"name":"Henrico","state":"VA","fullName":"Henrico, VA","RegionID":182023},"geometry":{"type":"Point","coordinates":[-77.62,37.66]}},{"type":"Feature","properties":{"name":"Dayton","state":"OH","fullName":"Dayton, OH","RegionID":31184},"geometry":{"type":"Point","coordinates":[-84.1916,39.7589]}},{"type":"Feature","properties":{"name":"Lakewood","state":"CO","fullName":"Lakewood, CO","RegionID":5519},"geometry":{"type":"Point","coordinates":[100.77898,13.622099]}},{"type":"Feature","properties":{"name":"Cumming","state":"GA","fullName":"Cumming, GA","RegionID":44821},"geometry":{"type":"Point","coordinates":[-84.1402,34.2073]}},{"type":"Feature","properties":{"name":"Tyler","state":"TX","fullName":"Tyler, TX","RegionID":41324},"geometry":{"type":"Point","coordinates":[-95.3011,32.3513]}},{"type":"Feature","properties":{"name":"Pomona","state":"CA","fullName":"Pomona, CA","RegionID":20008},"geometry":{"type":"Point","coordinates":[-117.7517,34.0554]}},{"type":"Feature","properties":{"name":"Visalia","state":"CA","fullName":"Visalia, CA","RegionID":21114},"geometry":{"type":"Point","coordinates":[-119.2921,36.3302]}},{"type":"Feature","properties":{"name":"Cypress","state":"TX","fullName":"Cypress, TX","RegionID":38119},"geometry":{"type":"Point","coordinates":[-95.6972,29.9691]}},{"type":"Feature","properties":{"name":"Round Rock","state":"TX","fullName":"Round Rock, TX","RegionID":26857},"geometry":{"type":"Point","coordinates":[-97.6789,30.5082]}},{"type":"Feature","properties":{"name":"Ann Arbor","state":"MI","fullName":"Ann Arbor, MI","RegionID":8097},"geometry":{"type":"Point","coordinates":[-83.7312,42.2682]}},{"type":"Feature","properties":{"name":"Kansas City","state":"KS","fullName":"Kansas City, KS","RegionID":39191},"geometry":{"type":"Point","coordinates":[-94.7495,39.1147]}},{"type":"Feature","properties":{"name":"Hollywood","state":"FL","fullName":"Hollywood, FL","RegionID":32060},"geometry":{"type":"Point","coordinates":[-80.1495,26.0112]}},{"type":"Feature","properties":{"name":"Sunnyvale","state":"CA","fullName":"Sunnyvale, CA","RegionID":54626},"geometry":{"type":"Point","coordinates":[-122.0363,37.3688]}},{"type":"Feature","properties":{"name":"Las Cruces","state":"NM","fullName":"Las Cruces, NM","RegionID":25514},"geometry":{"type":"Point","coordinates":[-106.7798,32.314]}},{"type":"Feature","properties":{"name":"Conroe","state":"TX","fullName":"Conroe, TX","RegionID":44734},"geometry":{"type":"Point","coordinates":[-95.4561,30.3119]}},{"type":"Feature","properties":{"name":"Lansing","state":"MI","fullName":"Lansing, MI","RegionID":398300},"geometry":{"type":"Point","coordinates":[-84.5554,42.7338]}},{"type":"Feature","properties":{"name":"South Bend","state":"IN","fullName":"South Bend, IN","RegionID":20555},"geometry":{"type":"Point","coordinates":[-86.25,41.6834]}},{"type":"Feature","properties":{"name":"Pasadena","state":"TX","fullName":"Pasadena, TX","RegionID":19865},"geometry":{"type":"Point","coordinates":[-95.2091,29.6911]}},{"type":"Feature","properties":{"name":"Cary","state":"NC","fullName":"Cary, NC","RegionID":51297},"geometry":{"type":"Point","coordinates":[-78.7812,35.7883]}},{"type":"Feature","properties":{"name":"Paterson","state":"NJ","fullName":"Paterson, NJ","RegionID":19873},"geometry":{"type":"Point","coordinates":[-74.1718,40.9168]}},{"type":"Feature","properties":{"name":"Beaumont","state":"TX","fullName":"Beaumont, TX","RegionID":35282},"geometry":{"type":"Point","coordinates":[-94.1018,30.086]}},{"type":"Feature","properties":{"name":"Yuma","state":"AZ","fullName":"Yuma, AZ","RegionID":28065},"geometry":{"type":"Point","coordinates":[-114.6244,32.7253]}},{"type":"Feature","properties":{"name":"Columbia","state":"MO","fullName":"Columbia, MO","RegionID":10918},"geometry":{"type":"Point","coordinates":[-92.3337,38.9519]}},{"type":"Feature","properties":{"name":"Syracuse","state":"NY","fullName":"Syracuse, NY","RegionID":7353},"geometry":{"type":"Point","coordinates":[-76.1474,43.0481]}},{"type":"Feature","properties":{"name":"Frisco","state":"TX","fullName":"Frisco, TX","RegionID":18208},"geometry":{"type":"Point","coordinates":[-96.8236,33.1507]}},{"type":"Feature","properties":{"name":"Renton","state":"WA","fullName":"Renton, WA","RegionID":13480},"geometry":{"type":"Point","coordinates":[-122.2034,47.4799]}},{"type":"Feature","properties":{"name":"Bridgeport","state":"CT","fullName":"Bridgeport, CT","RegionID":3806},"geometry":{"type":"Point","coordinates":[-73.2048,41.167]}},{"type":"Feature","properties":{"name":"Edinburg","state":"TX","fullName":"Edinburg, TX","RegionID":4521},"geometry":{"type":"Point","coordinates":[-98.1625,26.3014]}},{"type":"Feature","properties":{"name":"Canton","state":"OH","fullName":"Canton, OH","RegionID":51260},"geometry":{"type":"Point","coordinates":[-81.3784,40.799]}},{"type":"Feature","properties":{"name":"Newark","state":"DE","fullName":"Newark, DE","RegionID":6183},"geometry":{"type":"Point","coordinates":[-75.7508,39.6852]}},{"type":"Feature","properties":{"name":"Mesquite","state":"TX","fullName":"Mesquite, TX","RegionID":12694},"geometry":{"type":"Point","coordinates":[-96.5995,32.7666]}},{"type":"Feature","properties":{"name":"Metairie","state":"LA","fullName":"Metairie, LA","RegionID":5914},"geometry":{"type":"Point","coordinates":[-90.1505,29.99]}},{"type":"Feature","properties":{"name":"Pasadena","state":"CA","fullName":"Pasadena, CA","RegionID":47019},"geometry":{"type":"Point","coordinates":[-118.1445,34.1476]}},{"type":"Feature","properties":{"name":"Santa Maria","state":"CA","fullName":"Santa Maria, CA","RegionID":47570},"geometry":{"type":"Point","coordinates":[14.25,41.08333]}},{"type":"Feature","properties":{"name":"Torrance","state":"CA","fullName":"Torrance, CA","RegionID":54722},"geometry":{"type":"Point","coordinates":[-118.3406,33.8358]}},{"type":"Feature","properties":{"name":"Clearwater","state":"FL","fullName":"Clearwater, FL","RegionID":51447},"geometry":{"type":"Point","coordinates":[-82.8001,27.9659]}},{"type":"Feature","properties":{"name":"Fullerton","state":"CA","fullName":"Fullerton, CA","RegionID":24812},"geometry":{"type":"Point","coordinates":[-117.9294,33.8708]}},{"type":"Feature","properties":{"name":"McAllen","state":"TX","fullName":"McAllen, TX","RegionID":25818},"geometry":{"type":"Point","coordinates":[-98.2301,26.2044]}},{"type":"Feature","properties":{"name":"Orange","state":"CA","fullName":"Orange, CA","RegionID":33252},"geometry":{"type":"Point","coordinates":[-117.8503,33.7873]}},{"type":"Feature","properties":{"name":"Compton","state":"CA","fullName":"Compton, CA","RegionID":24174},"geometry":{"type":"Point","coordinates":[-118.226,33.8949]}},{"type":"Feature","properties":{"name":"Hampton","state":"VA","fullName":"Hampton, VA","RegionID":5052},"geometry":{"type":"Point","coordinates":[-76.3452,37.0301]}},{"type":"Feature","properties":{"name":"Bellevue","state":"WA","fullName":"Bellevue, WA","RegionID":3619},"geometry":{"type":"Point","coordinates":[-122.1923,47.6144]}},{"type":"Feature","properties":{"name":"Inglewood","state":"CA","fullName":"Inglewood, CA","RegionID":45888},"geometry":{"type":"Point","coordinates":[-118.3531,33.9617]}},{"type":"Feature","properties":{"name":"West Valley City","state":"UT","fullName":"West Valley City, UT","RegionID":48443},"geometry":{"type":"Point","coordinates":[-112.0011,40.6916]}},{"type":"Feature","properties":{"name":"Olathe","state":"KS","fullName":"Olathe, KS","RegionID":33230},"geometry":{"type":"Point","coordinates":[-94.8161,38.8844]}},{"type":"Feature","properties":{"name":"Warren","state":"MI","fullName":"Warren, MI","RegionID":21159},"geometry":{"type":"Point","coordinates":[-83.054,42.5125]}},{"type":"Feature","properties":{"name":"Miramar","state":"FL","fullName":"Miramar, FL","RegionID":39815},"geometry":{"type":"Point","coordinates":[-117.135155,32.875523]}},{"type":"Feature","properties":{"name":"Thornton","state":"CO","fullName":"Thornton, CO","RegionID":20793},"geometry":{"type":"Point","coordinates":[-87.61885,41.60634]}},{"type":"Feature","properties":{"name":"Abilene","state":"TX","fullName":"Abilene, TX","RegionID":23394},"geometry":{"type":"Point","coordinates":[-99.7333,32.4465]}},{"type":"Feature","properties":{"name":"Billings","state":"MT","fullName":"Billings, MT","RegionID":37427},"geometry":{"type":"Point","coordinates":[-108.4961,45.7875]}},{"type":"Feature","properties":{"name":"Concord","state":"CA","fullName":"Concord, CA","RegionID":51518},"geometry":{"type":"Point","coordinates":[-122.0311,37.978]}},{"type":"Feature","properties":{"name":"Ramapo","state":"NY","fullName":"Ramapo, NY","RegionID":395433},"geometry":{"type":"Point","coordinates":[-74.3608811,40.6604805]}},{"type":"Feature","properties":{"name":"Bloomington","state":"IN","fullName":"Bloomington, IN","RegionID":17070},"geometry":{"type":"Point","coordinates":[-86.5343,39.167]}},{"type":"Feature","properties":{"name":"Boulder","state":"CO","fullName":"Boulder, CO","RegionID":30543},"geometry":{"type":"Point","coordinates":[-105.2705,40.015]}},{"type":"Feature","properties":{"name":"Saginaw","state":"MI","fullName":"Saginaw, MI","RegionID":54263},"geometry":{"type":"Point","coordinates":[-83.949,43.42]}},{"type":"Feature","properties":{"name":"Beaverton","state":"OR","fullName":"Beaverton, OR","RegionID":30381},"geometry":{"type":"Point","coordinates":[-122.8038,45.4872]}},{"type":"Feature","properties":{"name":"Carrollton","state":"TX","fullName":"Carrollton, TX","RegionID":17321},"geometry":{"type":"Point","coordinates":[-96.8922,33.001]}},{"type":"Feature","properties":{"name":"Coral Springs","state":"FL","fullName":"Coral Springs, FL","RegionID":17571},"geometry":{"type":"Point","coordinates":[-80.2706,26.2712]}},{"type":"Feature","properties":{"name":"Thousand Oaks","state":"CA","fullName":"Thousand Oaks, CA","RegionID":34278},"geometry":{"type":"Point","coordinates":[-118.8376,34.1706]}},{"type":"Feature","properties":{"name":"Roseville","state":"CA","fullName":"Roseville, CA","RegionID":13594},"geometry":{"type":"Point","coordinates":[-121.288,38.7521]}},{"type":"Feature","properties":{"name":"New Haven","state":"CT","fullName":"New Haven, CT","RegionID":6155},"geometry":{"type":"Point","coordinates":[-72.9251,41.3082]}},{"type":"Feature","properties":{"name":"Hamilton","state":"OH","fullName":"Hamilton, OH","RegionID":11786},"geometry":{"type":"Point","coordinates":[-84.5613,39.3995]}},{"type":"Feature","properties":{"name":"Simi Valley","state":"CA","fullName":"Simi Valley, CA","RegionID":27110},"geometry":{"type":"Point","coordinates":[-118.7815,34.2694]}},{"type":"Feature","properties":{"name":"Waco","state":"TX","fullName":"Waco, TX","RegionID":48293},"geometry":{"type":"Point","coordinates":[-97.1467,31.5493]}},{"type":"Feature","properties":{"name":"Stamford","state":"CT","fullName":"Stamford, CT","RegionID":27239},"geometry":{"type":"Point","coordinates":[103.85045,1.294491]}},{"type":"Feature","properties":{"name":"Pearland","state":"TX","fullName":"Pearland, TX","RegionID":13234},"geometry":{"type":"Point","coordinates":[-95.2864,29.564]}},{"type":"Feature","properties":{"name":"Denton","state":"TX","fullName":"Denton, TX","RegionID":4351},"geometry":{"type":"Point","coordinates":[-97.1331,33.215]}},{"type":"Feature","properties":{"name":"Santa Fe","state":"NM","fullName":"Santa Fe, NM","RegionID":40760},"geometry":{"type":"Point","coordinates":[-105.9378,35.687]}},{"type":"Feature","properties":{"name":"Gainesville","state":"GA","fullName":"Gainesville, GA","RegionID":24822},"geometry":{"type":"Point","coordinates":[-83.8241,34.2979]}},{"type":"Feature","properties":{"name":"Allentown","state":"PA","fullName":"Allentown, PA","RegionID":16726},"geometry":{"type":"Point","coordinates":[-75.4713,40.6022]}},{"type":"Feature","properties":{"name":"Lake Charles","state":"LA","fullName":"Lake Charles, LA","RegionID":46101},"geometry":{"type":"Point","coordinates":[-93.2174,30.2266]}},{"type":"Feature","properties":{"name":"Frederick","state":"MD","fullName":"Frederick, MD","RegionID":4810},"geometry":{"type":"Point","coordinates":[-77.4106,39.4144]}},{"type":"Feature","properties":{"name":"Flint","state":"MI","fullName":"Flint, MI","RegionID":398007},"geometry":{"type":"Point","coordinates":[-83.7236,43.0172]}},{"type":"Feature","properties":{"name":"Hartford","state":"CT","fullName":"Hartford, CT","RegionID":5071},"geometry":{"type":"Point","coordinates":[-82.990801,42.288637]}},{"type":"Feature","properties":{"name":"Murrieta","state":"CA","fullName":"Murrieta, CA","RegionID":6103},"geometry":{"type":"Point","coordinates":[-117.2107,33.5608]}},{"type":"Feature","properties":{"name":"Temecula","state":"CA","fullName":"Temecula, CA","RegionID":7386},"geometry":{"type":"Point","coordinates":[-117.1474,33.4946]}},{"type":"Feature","properties":{"name":"East Los Angeles","state":"CA","fullName":"East Los Angeles, CA","RegionID":17882},"geometry":{"type":"Point","coordinates":[-118.14955,34.040962]}},{"type":"Feature","properties":{"name":"Joliet","state":"IL","fullName":"Joliet, IL","RegionID":32238},"geometry":{"type":"Point","coordinates":[-88.0817,41.525]}},{"type":"Feature","properties":{"name":"Springfield","state":"IL","fullName":"Springfield, IL","RegionID":54522},"geometry":{"type":"Point","coordinates":[-89.6444,39.799]}},{"type":"Feature","properties":{"name":"Santa Clara","state":"CA","fullName":"Santa Clara, CA","RegionID":13713},"geometry":{"type":"Point","coordinates":[-121.9552,37.3541]}},{"type":"Feature","properties":{"name":"Amherst","state":"NY","fullName":"Amherst, NY","RegionID":30211},"geometry":{"type":"Point","coordinates":[-73.95451,40.768887]}},{"type":"Feature","properties":{"name":"Athens","state":"GA","fullName":"Athens, GA","RegionID":23534},"geometry":{"type":"Point","coordinates":[-83.3767,33.9596]}},{"type":"Feature","properties":{"name":"Cedar Rapids","state":"IA","fullName":"Cedar Rapids, IA","RegionID":44506},"geometry":{"type":"Point","coordinates":[-91.6704,41.9759]}},{"type":"Feature","properties":{"name":"Falls Church","state":"VA","fullName":"Falls Church, VA","RegionID":4679},"geometry":{"type":"Point","coordinates":[-77.1711,38.8823]}},{"type":"Feature","properties":{"name":"Norman","state":"OK","fullName":"Norman, OK","RegionID":33136},"geometry":{"type":"Point","coordinates":[-97.4395,35.2226]}},{"type":"Feature","properties":{"name":"Nampa","state":"ID","fullName":"Nampa, ID","RegionID":33024},"geometry":{"type":"Point","coordinates":[-116.5596,43.5737]}},{"type":"Feature","properties":{"name":"Berkeley","state":"CA","fullName":"Berkeley, CA","RegionID":16992},"geometry":{"type":"Point","coordinates":[-122.2729,37.8708]}},{"type":"Feature","properties":{"name":"Westminster","state":"CO","fullName":"Westminster, CO","RegionID":34781},"geometry":{"type":"Point","coordinates":[-111.85382,40.731976]}},{"type":"Feature","properties":{"name":"Clovis","state":"CA","fullName":"Clovis, CA","RegionID":44655},"geometry":{"type":"Point","coordinates":[-119.7029,36.8252]}},{"type":"Feature","properties":{"name":"Richmond","state":"CA","fullName":"Richmond, CA","RegionID":26751},"geometry":{"type":"Point","coordinates":[-1.737388,54.402134]}},{"type":"Feature","properties":{"name":"Summerville","state":"SC","fullName":"Summerville, SC","RegionID":27317},"geometry":{"type":"Point","coordinates":[-80.1757,33.0185]}},{"type":"Feature","properties":{"name":"Vista","state":"CA","fullName":"Vista, CA","RegionID":41517},"geometry":{"type":"Point","coordinates":[-117.2425,33.2]}},{"type":"Feature","properties":{"name":"Broken Arrow","state":"OK","fullName":"Broken Arrow, OK","RegionID":37596},"geometry":{"type":"Point","coordinates":[-95.7908,36.0526]}},{"type":"Feature","properties":{"name":"Rochester","state":"MN","fullName":"Rochester, MN","RegionID":26791},"geometry":{"type":"Point","coordinates":[-92.463,44.0233]}},{"type":"Feature","properties":{"name":"Arvada","state":"CO","fullName":"Arvada, CO","RegionID":10181},"geometry":{"type":"Point","coordinates":[-105.0875,39.8028]}},{"type":"Feature","properties":{"name":"Charlottesville","state":"VA","fullName":"Charlottesville, VA","RegionID":30840},"geometry":{"type":"Point","coordinates":[-78.4767,38.0293]}},{"type":"Feature","properties":{"name":"Independence","state":"MO","fullName":"Independence, MO","RegionID":12038},"geometry":{"type":"Point","coordinates":[-94.4155,39.0911]}},{"type":"Feature","properties":{"name":"Macon","state":"GA","fullName":"Macon, GA","RegionID":32626},"geometry":{"type":"Point","coordinates":[-83.6324,32.8407]}},{"type":"Feature","properties":{"name":"Tuscaloosa","state":"AL","fullName":"Tuscaloosa, AL","RegionID":14208},"geometry":{"type":"Point","coordinates":[-87.4862,33.2668]}},{"type":"Feature","properties":{"name":"Provo","state":"UT","fullName":"Provo, UT","RegionID":20071},"geometry":{"type":"Point","coordinates":[-111.6585,40.2338]}},{"type":"Feature","properties":{"name":"Concord","state":"NC","fullName":"Concord, NC","RegionID":17551},"geometry":{"type":"Point","coordinates":[-80.5797,35.4094]}},{"type":"Feature","properties":{"name":"New Port Richey","state":"FL","fullName":"New Port Richey, FL","RegionID":6172},"geometry":{"type":"Point","coordinates":[-82.7193,28.2442]}},{"type":"Feature","properties":{"name":"Spartanburg","state":"SC","fullName":"Spartanburg, SC","RegionID":7191},"geometry":{"type":"Point","coordinates":[-81.932,34.9498]}},{"type":"Feature","properties":{"name":"Melbourne","state":"FL","fullName":"Melbourne, FL","RegionID":19307},"geometry":{"type":"Point","coordinates":[-80.6081,28.0836]}},{"type":"Feature","properties":{"name":"Costa Mesa","state":"CA","fullName":"Costa Mesa, CA","RegionID":38032},"geometry":{"type":"Point","coordinates":[-117.9033,33.6633]}},{"type":"Feature","properties":{"name":"Sparks","state":"NV","fullName":"Sparks, NV","RegionID":13943},"geometry":{"type":"Point","coordinates":[-119.7528,39.5348]}},{"type":"Feature","properties":{"name":"College Station","state":"TX","fullName":"College Station, TX","RegionID":37965},"geometry":{"type":"Point","coordinates":[-96.3347,30.6263]}},{"type":"Feature","properties":{"name":"Bend","state":"OR","fullName":"Bend, OR","RegionID":50962},"geometry":{"type":"Point","coordinates":[-121.3153,44.0582]}},{"type":"Feature","properties":{"name":"El Monte","state":"CA","fullName":"El Monte, CA","RegionID":51861},"geometry":{"type":"Point","coordinates":[-118.0368,34.0752]}},{"type":"Feature","properties":{"name":"Miami Gardens","state":"FL","fullName":"Miami Gardens, FL","RegionID":39767},"geometry":{"type":"Point","coordinates":[-80.2456,25.942]}},{"type":"Feature","properties":{"name":"Chico","state":"CA","fullName":"Chico, CA","RegionID":37863},"geometry":{"type":"Point","coordinates":[-121.8375,39.7285]}},{"type":"Feature","properties":{"name":"Manchester","state":"NH","fullName":"Manchester, NH","RegionID":5772},"geometry":{"type":"Point","coordinates":[-71.4548,42.9956]}},{"type":"Feature","properties":{"name":"Downey","state":"CA","fullName":"Downey, CA","RegionID":4406},"geometry":{"type":"Point","coordinates":[-118.1326,33.94]}},{"type":"Feature","properties":{"name":"Tracy","state":"CA","fullName":"Tracy, CA","RegionID":7453},"geometry":{"type":"Point","coordinates":[-121.4252,37.7397]}},{"type":"Feature","properties":{"name":"Ventura","state":"CA","fullName":"Ventura, CA","RegionID":34543},"geometry":{"type":"Point","coordinates":[-119.2932,34.2783]}},{"type":"Feature","properties":{"name":"North Charleston","state":"SC","fullName":"North Charleston, SC","RegionID":6218},"geometry":{"type":"Point","coordinates":[-79.9748,32.8546]}},{"type":"Feature","properties":{"name":"Lewisville","state":"TX","fullName":"Lewisville, TX","RegionID":39420},"geometry":{"type":"Point","coordinates":[-96.9942,33.0462]}},{"type":"Feature","properties":{"name":"West Covina","state":"CA","fullName":"West Covina, CA","RegionID":14542},"geometry":{"type":"Point","coordinates":[-117.939,34.0686]}},{"type":"Feature","properties":{"name":"Rock Hill","state":"SC","fullName":"Rock Hill, SC","RegionID":13554},"geometry":{"type":"Point","coordinates":[-81.0251,34.9249]}},{"type":"Feature","properties":{"name":"Bowling Green","state":"KY","fullName":"Bowling Green, KY","RegionID":17133},"geometry":{"type":"Point","coordinates":[-86.4436,36.9903]}},{"type":"Feature","properties":{"name":"Yakima","state":"WA","fullName":"Yakima, WA","RegionID":41802},"geometry":{"type":"Point","coordinates":[-120.5108,46.6016]}},{"type":"Feature","properties":{"name":"Redding","state":"CA","fullName":"Redding, CA","RegionID":47322},"geometry":{"type":"Point","coordinates":[-122.3917,40.5864]}},{"type":"Feature","properties":{"name":"Saint Augustine","state":"FL","fullName":"Saint Augustine, FL","RegionID":26900},"geometry":{"type":"Point","coordinates":[-81.4165,29.8961]}},{"type":"Feature","properties":{"name":"Delray Beach","state":"FL","fullName":"Delray Beach, FL","RegionID":31209},"geometry":{"type":"Point","coordinates":[-80.0728,26.4615]}},{"type":"Feature","properties":{"name":"Lowell","state":"MA","fullName":"Lowell, MA","RegionID":25659},"geometry":{"type":"Point","coordinates":[-71.3162,42.6334]}},{"type":"Feature","properties":{"name":"Waterbury","state":"CT","fullName":"Waterbury, CT","RegionID":34671},"geometry":{"type":"Point","coordinates":[-73.0515,41.5582]}},{"type":"Feature","properties":{"name":"Carlsbad","state":"CA","fullName":"Carlsbad, CA","RegionID":3975},"geometry":{"type":"Point","coordinates":[-117.3506,33.1581]}},{"type":"Feature","properties":{"name":"Elgin","state":"IL","fullName":"Elgin, IL","RegionID":17943},"geometry":{"type":"Point","coordinates":[-88.2812,42.0372]}},{"type":"Feature","properties":{"name":"Cambridge","state":"MA","fullName":"Cambridge, MA","RegionID":3934},"geometry":{"type":"Point","coordinates":[-71.1056,42.3751]}},{"type":"Feature","properties":{"name":"Kent","state":"WA","fullName":"Kent, WA","RegionID":5399},"geometry":{"type":"Point","coordinates":[-122.227,47.3827]}},{"type":"Feature","properties":{"name":"Fargo","state":"ND","fullName":"Fargo, ND","RegionID":18073},"geometry":{"type":"Point","coordinates":[-96.7898,46.8772]}},{"type":"Feature","properties":{"name":"West Jordan","state":"UT","fullName":"West Jordan, UT","RegionID":41641},"geometry":{"type":"Point","coordinates":[-111.9391,40.6097]}},{"type":"Feature","properties":{"name":"Greenville","state":"NC","fullName":"Greenville, NC","RegionID":11726},"geometry":{"type":"Point","coordinates":[-77.3664,35.6127]}},{"type":"Feature","properties":{"name":"Manassas","state":"VA","fullName":"Manassas, VA","RegionID":19172},"geometry":{"type":"Point","coordinates":[-77.4753,38.7509]}},{"type":"Feature","properties":{"name":"Hillsboro","state":"OR","fullName":"Hillsboro, OR","RegionID":11914},"geometry":{"type":"Point","coordinates":[-122.9898,45.5229]}},{"type":"Feature","properties":{"name":"Lakeland","state":"FL","fullName":"Lakeland, FL","RegionID":25483},"geometry":{"type":"Point","coordinates":[-81.9498,28.0395]}},{"type":"Feature","properties":{"name":"Green Bay","state":"WI","fullName":"Green Bay, WI","RegionID":45548},"geometry":{"type":"Point","coordinates":[-88.0248,44.5299]}},{"type":"Feature","properties":{"name":"Palm Bay","state":"FL","fullName":"Palm Bay, FL","RegionID":53787},"geometry":{"type":"Point","coordinates":[-80.643,28.0332]}},{"type":"Feature","properties":{"name":"Richardson","state":"TX","fullName":"Richardson, TX","RegionID":54121},"geometry":{"type":"Point","coordinates":[-96.7297,32.9482]}},{"type":"Feature","properties":{"name":"West Chester","state":"PA","fullName":"West Chester, PA","RegionID":41629},"geometry":{"type":"Point","coordinates":[-75.606,39.9597]}},{"type":"Feature","properties":{"name":"Norwalk","state":"CA","fullName":"Norwalk, CA","RegionID":53636},"geometry":{"type":"Point","coordinates":[-118.0849,33.9093]}},{"type":"Feature","properties":{"name":"Vero Beach","state":"FL","fullName":"Vero Beach, FL","RegionID":7680},"geometry":{"type":"Point","coordinates":[-80.3975,27.6387]}},{"type":"Feature","properties":{"name":"Peoria","state":"IL","fullName":"Peoria, IL","RegionID":19903},"geometry":{"type":"Point","coordinates":[-89.5891,40.6939]}},{"type":"Feature","properties":{"name":"Douglasville","state":"GA","fullName":"Douglasville, GA","RegionID":11140},"geometry":{"type":"Point","coordinates":[-84.7477,33.7515]}},{"type":"Feature","properties":{"name":"Centennial","state":"CO","fullName":"Centennial, CO","RegionID":44515},"geometry":{"type":"Point","coordinates":[-79.291916,43.730892]}},{"type":"Feature","properties":{"name":"Springfield","state":"VA","fullName":"Springfield, VA","RegionID":27228},"geometry":{"type":"Point","coordinates":[-77.187,38.7891]}},{"type":"Feature","properties":{"name":"Fairfield","state":"CA","fullName":"Fairfield, CA","RegionID":18053},"geometry":{"type":"Point","coordinates":[-84.9951323,39.5068063]}},{"type":"Feature","properties":{"name":"Davenport","state":"IA","fullName":"Davenport, IA","RegionID":4301},"geometry":{"type":"Point","coordinates":[-90.5776,41.5236]}},{"type":"Feature","properties":{"name":"Lehigh Acres","state":"FL","fullName":"Lehigh Acres, FL","RegionID":5595},"geometry":{"type":"Point","coordinates":[-81.6248,26.6253]}},{"type":"Feature","properties":{"name":"Everett","state":"WA","fullName":"Everett, WA","RegionID":4626},"geometry":{"type":"Point","coordinates":[-122.2014,47.9673]}},{"type":"Feature","properties":{"name":"Pompano Beach","state":"FL","fullName":"Pompano Beach, FL","RegionID":26575},"geometry":{"type":"Point","coordinates":[-80.1248,26.2379]}},{"type":"Feature","properties":{"name":"Wichita Falls","state":"TX","fullName":"Wichita Falls, TX","RegionID":27942},"geometry":{"type":"Point","coordinates":[-98.4934,33.9137]}},{"type":"Feature","properties":{"name":"San Leandro","state":"CA","fullName":"San Leandro, CA","RegionID":13698},"geometry":{"type":"Point","coordinates":[-122.1561,37.7249]}},{"type":"Feature","properties":{"name":"Burbank","state":"CA","fullName":"Burbank, CA","RegionID":396054},"geometry":{"type":"Point","coordinates":[-118.3259,34.1816]}},{"type":"Feature","properties":{"name":"Madera","state":"CA","fullName":"Madera, CA","RegionID":32629},"geometry":{"type":"Point","coordinates":[-120.0595,36.9623]}},{"type":"Feature","properties":{"name":"Albany","state":"NY","fullName":"Albany, NY","RegionID":37074},"geometry":{"type":"Point","coordinates":[-73.755,42.6512]}},{"type":"Feature","properties":{"name":"Hesperia","state":"CA","fullName":"Hesperia, CA","RegionID":45732},"geometry":{"type":"Point","coordinates":[-117.3009,34.4264]}},{"type":"Feature","properties":{"name":"Jackson","state":"MI","fullName":"Jackson, MI","RegionID":45911},"geometry":{"type":"Point","coordinates":[-90.1848,32.299]}},{"type":"Feature","properties":{"name":"Franklin","state":"TN","fullName":"Franklin, TN","RegionID":45339},"geometry":{"type":"Point","coordinates":[-114.03,46.85]}},{"type":"Feature","properties":{"name":"Longview","state":"TX","fullName":"Longview, TX","RegionID":12438},"geometry":{"type":"Point","coordinates":[-94.7405,32.5007]}},{"type":"Feature","properties":{"name":"San Mateo","state":"CA","fullName":"San Mateo, CA","RegionID":13699},"geometry":{"type":"Point","coordinates":[-122.3091,37.5446]}},{"type":"Feature","properties":{"name":"Antioch","state":"CA","fullName":"Antioch, CA","RegionID":16780},"geometry":{"type":"Point","coordinates":[-121.8058,38.0049]}},{"type":"Feature","properties":{"name":"Edison","state":"NJ","fullName":"Edison, NJ","RegionID":11267},"geometry":{"type":"Point","coordinates":[-74.4121,40.5187]}},{"type":"Feature","properties":{"name":"Sandy Springs","state":"GA","fullName":"Sandy Springs, GA","RegionID":13709},"geometry":{"type":"Point","coordinates":[-84.32,33.92]}},{"type":"Feature","properties":{"name":"Merced","state":"CA","fullName":"Merced, CA","RegionID":25855},"geometry":{"type":"Point","coordinates":[-120.4843,37.303]}},{"type":"Feature","properties":{"name":"Santa Cruz","state":"CA","fullName":"Santa Cruz, CA","RegionID":13715},"geometry":{"type":"Point","coordinates":[-39.0263,-16.2814]}},{"type":"Feature","properties":{"name":"Lexington","state":"SC","fullName":"Lexington, SC","RegionID":32489},"geometry":{"type":"Point","coordinates":[-81.2362,33.9815]}},{"type":"Feature","properties":{"name":"Chapel Hill","state":"NC","fullName":"Chapel Hill, NC","RegionID":17386},"geometry":{"type":"Point","coordinates":[-79.0558,35.9132]}},{"type":"Feature","properties":{"name":"Kennesaw","state":"GA","fullName":"Kennesaw, GA","RegionID":32287},"geometry":{"type":"Point","coordinates":[-84.6155,34.0234]}},{"type":"Feature","properties":{"name":"Clinton","state":"MI","fullName":"Clinton, MI","RegionID":37933},"geometry":{"type":"Point","coordinates":[-90.3218,32.3415]}},{"type":"Feature","properties":{"name":"Daly City","state":"CA","fullName":"Daly City, CA","RegionID":31163},"geometry":{"type":"Point","coordinates":[-122.4619,37.7058]}},{"type":"Feature","properties":{"name":"Rialto","state":"CA","fullName":"Rialto, CA","RegionID":33645},"geometry":{"type":"Point","coordinates":[-117.3703,34.1064]}},{"type":"Feature","properties":{"name":"Elkhart","state":"IN","fullName":"Elkhart, IN","RegionID":45127},"geometry":{"type":"Point","coordinates":[-85.9767,41.682]}},{"type":"Feature","properties":{"name":"The Woodlands","state":"TX","fullName":"The Woodlands, TX","RegionID":47977},"geometry":{"type":"Point","coordinates":[-95.4571,30.161253]}},{"type":"Feature","properties":{"name":"Davie","state":"FL","fullName":"Davie, FL","RegionID":11049},"geometry":{"type":"Point","coordinates":[-80.31222,26.083105]}},{"type":"Feature","properties":{"name":"Columbia","state":"MD","fullName":"Columbia, MD","RegionID":10917},"geometry":{"type":"Point","coordinates":[-76.8582,39.2156]}},{"type":"Feature","properties":{"name":"Meridian","state":"ID","fullName":"Meridian, ID","RegionID":46508},"geometry":{"type":"Point","coordinates":[-116.3923,43.6086]}},{"type":"Feature","properties":{"name":"Lawrence","state":"KS","fullName":"Lawrence, KS","RegionID":32452},"geometry":{"type":"Point","coordinates":[-95.2359,38.9719]}},{"type":"Feature","properties":{"name":"Napa","state":"CA","fullName":"Napa, CA","RegionID":6112},"geometry":{"type":"Point","coordinates":[-122.2855,38.2971]}},{"type":"Feature","properties":{"name":"Lynchburg","state":"VA","fullName":"Lynchburg, VA","RegionID":46348},"geometry":{"type":"Point","coordinates":[-79.1422,37.4138]}},{"type":"Feature","properties":{"name":"Greeley","state":"CO","fullName":"Greeley, CO","RegionID":11695},"geometry":{"type":"Point","coordinates":[-104.7091,40.4233]}},{"type":"Feature","properties":{"name":"League City","state":"TX","fullName":"League City, TX","RegionID":39386},"geometry":{"type":"Point","coordinates":[-95.0949,29.5075]}},{"type":"Feature","properties":{"name":"Lakewood","state":"NJ","fullName":"Lakewood, NJ","RegionID":395471},"geometry":{"type":"Point","coordinates":[-74.2176,40.0979]}},{"type":"Feature","properties":{"name":"Mission Viejo","state":"CA","fullName":"Mission Viejo, CA","RegionID":12773},"geometry":{"type":"Point","coordinates":[-117.6594,33.5966]}},{"type":"Feature","properties":{"name":"Erie","state":"PA","fullName":"Erie, PA","RegionID":11335},"geometry":{"type":"Point","coordinates":[-80.0852,42.1291]}},{"type":"Feature","properties":{"name":"High Point","state":"NC","fullName":"High Point, NC","RegionID":11896},"geometry":{"type":"Point","coordinates":[-80.0053,35.9557]}},{"type":"Feature","properties":{"name":"Apopka","state":"FL","fullName":"Apopka, FL","RegionID":50741},"geometry":{"type":"Point","coordinates":[-81.5115,28.678]}},{"type":"Feature","properties":{"name":"Anderson","state":"SC","fullName":"Anderson, SC","RegionID":3404},"geometry":{"type":"Point","coordinates":[-82.252144,34.934444]}},{"type":"Feature","properties":{"name":"Livermore","state":"CA","fullName":"Livermore, CA","RegionID":32540},"geometry":{"type":"Point","coordinates":[-121.7681,37.6821]}},{"type":"Feature","properties":{"name":"Spring Hill","state":"FL","fullName":"Spring Hill, FL","RegionID":27219},"geometry":{"type":"Point","coordinates":[-82.5364,28.4635]}},{"type":"Feature","properties":{"name":"Sandy","state":"UT","fullName":"Sandy, UT","RegionID":6932},"geometry":{"type":"Point","coordinates":[-111.848,40.5749]}},{"type":"Feature","properties":{"name":"Wilmington","state":"DE","fullName":"Wilmington, DE","RegionID":14667},"geometry":{"type":"Point","coordinates":[-75.5466,39.7459]}},{"type":"Feature","properties":{"name":"Federal Way","state":"WA","fullName":"Federal Way, WA","RegionID":45255},"geometry":{"type":"Point","coordinates":[-122.3393,47.3135]}},{"type":"Feature","properties":{"name":"Rio Rancho","state":"NM","fullName":"Rio Rancho, NM","RegionID":40574},"geometry":{"type":"Point","coordinates":[-106.6645,35.2334]}},{"type":"Feature","properties":{"name":"South Gate","state":"CA","fullName":"South Gate, CA","RegionID":47762},"geometry":{"type":"Point","coordinates":[-118.201,33.9463]}},{"type":"Feature","properties":{"name":"Bryan","state":"TX","fullName":"Bryan, TX","RegionID":23862},"geometry":{"type":"Point","coordinates":[-96.37,30.6744]}},{"type":"Feature","properties":{"name":"Champaign","state":"IL","fullName":"Champaign, IL","RegionID":4042},"geometry":{"type":"Point","coordinates":[-88.2434,40.1164]}},{"type":"Feature","properties":{"name":"Albany","state":"GA","fullName":"Albany, GA","RegionID":16701},"geometry":{"type":"Point","coordinates":[-84.1557,31.5782]}},{"type":"Feature","properties":{"name":"Portsmouth","state":"VA","fullName":"Portsmouth, VA","RegionID":53978},"geometry":{"type":"Point","coordinates":[-76.2983,36.8354]}},{"type":"Feature","properties":{"name":"Greece","state":"NY","fullName":"Greece, NY","RegionID":399214},"geometry":{"type":"Point","coordinates":[-77.6931,43.2098]}},{"type":"Feature","properties":{"name":"Idaho Falls","state":"ID","fullName":"Idaho Falls, ID","RegionID":39097},"geometry":{"type":"Point","coordinates":[-112.0443,43.4931]}},{"type":"Feature","properties":{"name":"Dearborn","state":"MI","fullName":"Dearborn, MI","RegionID":24336},"geometry":{"type":"Point","coordinates":[-83.1763,42.3223]}},{"type":"Feature","properties":{"name":"Hawthorne","state":"CA","fullName":"Hawthorne, CA","RegionID":42150},"geometry":{"type":"Point","coordinates":[-74.15305,40.969944]}},{"type":"Feature","properties":{"name":"Johnson City","state":"TN","fullName":"Johnson City, TN","RegionID":52696},"geometry":{"type":"Point","coordinates":[-82.3535,36.3134]}},{"type":"Feature","properties":{"name":"Woodstock","state":"GA","fullName":"Woodstock, GA","RegionID":48573},"geometry":{"type":"Point","coordinates":[-84.5194,34.1015]}},{"type":"Feature","properties":{"name":"Brockton","state":"MA","fullName":"Brockton, MA","RegionID":44328},"geometry":{"type":"Point","coordinates":[-71.0184,42.0834]}},{"type":"Feature","properties":{"name":"Highlands Ranch","state":"CO","fullName":"Highlands Ranch, CO","RegionID":38992},"geometry":{"type":"Point","coordinates":[-105.01012,39.557156]}},{"type":"Feature","properties":{"name":"Midlothian","state":"VA","fullName":"Midlothian, VA","RegionID":53311},"geometry":{"type":"Point","coordinates":[-77.6493,37.5063]}},{"type":"Feature","properties":{"name":"Indio","state":"CA","fullName":"Indio, CA","RegionID":45878},"geometry":{"type":"Point","coordinates":[-116.2188,33.7193]}},{"type":"Feature","properties":{"name":"Annapolis","state":"MD","fullName":"Annapolis, MD","RegionID":16773},"geometry":{"type":"Point","coordinates":[-76.4928,38.9786]}},{"type":"Feature","properties":{"name":"New Braunfels","state":"TX","fullName":"New Braunfels, TX","RegionID":39966},"geometry":{"type":"Point","coordinates":[-98.1256,29.7026]}},{"type":"Feature","properties":{"name":"McDonough","state":"GA","fullName":"McDonough, GA","RegionID":32777},"geometry":{"type":"Point","coordinates":[-84.1469,33.4473]}},{"type":"Feature","properties":{"name":"Terre Haute","state":"IN","fullName":"Terre Haute, IN","RegionID":20776},"geometry":{"type":"Point","coordinates":[-87.4139,39.4667]}},{"type":"Feature","properties":{"name":"Ashburn","state":"VA","fullName":"Ashburn, VA","RegionID":16818},"geometry":{"type":"Point","coordinates":[-77.4875,39.0437]}},{"type":"Feature","properties":{"name":"Sterling","state":"VA","fullName":"Sterling, VA","RegionID":41059},"geometry":{"type":"Point","coordinates":[-77.4032,39.0016]}},{"type":"Feature","properties":{"name":"Auburn","state":"WA","fullName":"Auburn, WA","RegionID":16839},"geometry":{"type":"Point","coordinates":[-122.2302,47.3075]}},{"type":"Feature","properties":{"name":"Valdosta","state":"GA","fullName":"Valdosta, GA","RegionID":54902},"geometry":{"type":"Point","coordinates":[-83.2785,30.8327]}},{"type":"Feature","properties":{"name":"Kennewick","state":"WA","fullName":"Kennewick, WA","RegionID":52747},"geometry":{"type":"Point","coordinates":[-119.1372,46.2112]}},{"type":"Feature","properties":{"name":"Medford","state":"OR","fullName":"Medford, OR","RegionID":5891},"geometry":{"type":"Point","coordinates":[-122.8719,42.3264]}},{"type":"Feature","properties":{"name":"Acworth","state":"GA","fullName":"Acworth, GA","RegionID":16425},"geometry":{"type":"Point","coordinates":[-84.6769,34.0659]}},{"type":"Feature","properties":{"name":"Allen","state":"TX","fullName":"Allen, TX","RegionID":23444},"geometry":{"type":"Point","coordinates":[-96.6706,33.1032]}},{"type":"Feature","properties":{"name":"Kalamazoo","state":"MI","fullName":"Kalamazoo, MI","RegionID":397180},"geometry":{"type":"Point","coordinates":[-85.5872,42.2917]}},{"type":"Feature","properties":{"name":"Santa Monica","state":"CA","fullName":"Santa Monica, CA","RegionID":26964},"geometry":{"type":"Point","coordinates":[-118.487,34.0196]}},{"type":"Feature","properties":{"name":"Plantation","state":"FL","fullName":"Plantation, FL","RegionID":33450},"geometry":{"type":"Point","coordinates":[-80.5523,24.9762]}},{"type":"Feature","properties":{"name":"Plainfield","state":"IL","fullName":"Plainfield, IL","RegionID":26534},"geometry":{"type":"Point","coordinates":[-88.204,41.627]}},{"type":"Feature","properties":{"name":"New Bedford","state":"MA","fullName":"New Bedford, MA","RegionID":33058},"geometry":{"type":"Point","coordinates":[-70.9342,41.6362]}},{"type":"Feature","properties":{"name":"Westminster","state":"CA","fullName":"Westminster, CA","RegionID":34780},"geometry":{"type":"Point","coordinates":[-117.9859,33.7578]}},{"type":"Feature","properties":{"name":"Reading","state":"PA","fullName":"Reading, PA","RegionID":6696},"geometry":{"type":"Point","coordinates":[-75.9279,40.3353]}},{"type":"Feature","properties":{"name":"Loveland","state":"CO","fullName":"Loveland, CO","RegionID":46325},"geometry":{"type":"Point","coordinates":[-105.075,40.3978]}},{"type":"Feature","properties":{"name":"Cheyenne","state":"WY","fullName":"Cheyenne, WY","RegionID":44571},"geometry":{"type":"Point","coordinates":[-104.8202,41.14]}},{"type":"Feature","properties":{"name":"Fort Smith","state":"AR","fullName":"Fort Smith, AR","RegionID":38583},"geometry":{"type":"Point","coordinates":[-94.4249,35.3872]}},{"type":"Feature","properties":{"name":"Lawton","state":"OK","fullName":"Lawton, OK","RegionID":46183},"geometry":{"type":"Point","coordinates":[-98.3903,34.6087]}},{"type":"Feature","properties":{"name":"Kenosha","state":"WI","fullName":"Kenosha, WI","RegionID":39220},"geometry":{"type":"Point","coordinates":[-87.8212,42.5847]}},{"type":"Feature","properties":{"name":"Roswell","state":"GA","fullName":"Roswell, GA","RegionID":54219},"geometry":{"type":"Point","coordinates":[-84.36,34.0233]}},{"type":"Feature","properties":{"name":"Orem","state":"UT","fullName":"Orem, UT","RegionID":26319},"geometry":{"type":"Point","coordinates":[-111.6945,40.2975]}},{"type":"Feature","properties":{"name":"Miami Beach","state":"FL","fullName":"Miami Beach, FL","RegionID":5924},"geometry":{"type":"Point","coordinates":[-80.1273,25.7881]}},{"type":"Feature","properties":{"name":"Duluth","state":"MN","fullName":"Duluth, MN","RegionID":51758},"geometry":{"type":"Point","coordinates":[-92.1251,46.7729]}},{"type":"Feature","properties":{"name":"Sunrise","state":"FL","fullName":"Sunrise, FL","RegionID":54628},"geometry":{"type":"Point","coordinates":[-78.40114,40.52552]}},{"type":"Feature","properties":{"name":"Lynn","state":"MA","fullName":"Lynn, MA","RegionID":39558},"geometry":{"type":"Point","coordinates":[-70.9495,42.4668]}},{"type":"Feature","properties":{"name":"Cleveland","state":"TN","fullName":"Cleveland, TN","RegionID":44641},"geometry":{"type":"Point","coordinates":[-84.8766,35.1595]}},{"type":"Feature","properties":{"name":"Williamsburg","state":"VA","fullName":"Williamsburg, VA","RegionID":41715},"geometry":{"type":"Point","coordinates":[-76.7075,37.2707]}},{"type":"Feature","properties":{"name":"Lees Summit","state":"MO","fullName":"Lees Summit, MO","RegionID":39398},"geometry":{"type":"Point","coordinates":[-94.3822,38.9108]}},{"type":"Feature","properties":{"name":"Newnan","state":"GA","fullName":"Newnan, GA","RegionID":53569},"geometry":{"type":"Point","coordinates":[-84.7997,33.3807]}},{"type":"Feature","properties":{"name":"Holland","state":"MI","fullName":"Holland, MI","RegionID":397329},"geometry":{"type":"Point","coordinates":[-86.1091,42.7876]}},{"type":"Feature","properties":{"name":"San Marcos","state":"CA","fullName":"San Marcos, CA","RegionID":40737},"geometry":{"type":"Point","coordinates":[-114.594,32.6699]}},{"type":"Feature","properties":{"name":"Canton","state":"MI","fullName":"Canton, MI","RegionID":10700},"geometry":{"type":"Point","coordinates":[-83.4869,42.3075]}},{"type":"Feature","properties":{"name":"Herndon","state":"VA","fullName":"Herndon, VA","RegionID":38968},"geometry":{"type":"Point","coordinates":[-77.3859,38.9695]}},{"type":"Feature","properties":{"name":"Queen Creek","state":"AZ","fullName":"Queen Creek, AZ","RegionID":8814},"geometry":{"type":"Point","coordinates":[-111.6342,33.2484]}},{"type":"Feature","properties":{"name":"Covington","state":"GA","fullName":"Covington, GA","RegionID":38047},"geometry":{"type":"Point","coordinates":[-83.8602,33.5968]}},{"type":"Feature","properties":{"name":"Carmel","state":"IN","fullName":"Carmel, IN","RegionID":17309},"geometry":{"type":"Point","coordinates":[-86.1187,39.9788]}},{"type":"Feature","properties":{"name":"San Angelo","state":"TX","fullName":"San Angelo, TX","RegionID":54294},"geometry":{"type":"Point","coordinates":[-100.4398,31.4648]}},{"type":"Feature","properties":{"name":"Hamilton","state":"NJ","fullName":"Hamilton, NJ","RegionID":52387},"geometry":{"type":"Point","coordinates":[-74.6532,40.2273]}},{"type":"Feature","properties":{"name":"Tonawanda","state":"NY","fullName":"Tonawanda, NY","RegionID":34312},"geometry":{"type":"Point","coordinates":[-78.8784,43.0207]}},{"type":"Feature","properties":{"name":"Bothell","state":"WA","fullName":"Bothell, WA","RegionID":3761},"geometry":{"type":"Point","coordinates":[-122.2068,47.7599]}},{"type":"Feature","properties":{"name":"Newton","state":"MA","fullName":"Newton, MA","RegionID":40013},"geometry":{"type":"Point","coordinates":[-71.1953,42.3612]}},{"type":"Feature","properties":{"name":"Warner Robins","state":"GA","fullName":"Warner Robins, GA","RegionID":27768},"geometry":{"type":"Point","coordinates":[-83.5999,32.621]}},{"type":"Feature","properties":{"name":"Flagstaff","state":"AZ","fullName":"Flagstaff, AZ","RegionID":31567},"geometry":{"type":"Point","coordinates":[-111.6514,35.1995]}},{"type":"Feature","properties":{"name":"Chino","state":"CA","fullName":"Chino, CA","RegionID":44583},"geometry":{"type":"Point","coordinates":[-117.6901,34.0134]}},{"type":"Feature","properties":{"name":"Fort Pierce","state":"FL","fullName":"Fort Pierce, FL","RegionID":38581},"geometry":{"type":"Point","coordinates":[-80.3256,27.4467]}},{"type":"Feature","properties":{"name":"Redwood City","state":"CA","fullName":"Redwood City, CA","RegionID":20128},"geometry":{"type":"Point","coordinates":[-122.2364,37.4852]}},{"type":"Feature","properties":{"name":"Lafayette","state":"IN","fullName":"Lafayette, IN","RegionID":52839},"geometry":{"type":"Point","coordinates":[-86.8753,40.4167]}},{"type":"Feature","properties":{"name":"Leesburg","state":"VA","fullName":"Leesburg, VA","RegionID":32471},"geometry":{"type":"Point","coordinates":[-77.5645,39.1154]}},{"type":"Feature","properties":{"name":"Gulfport","state":"MS","fullName":"Gulfport, MS","RegionID":31892},"geometry":{"type":"Point","coordinates":[-89.0928,30.3674]}},{"type":"Feature","properties":{"name":"Pittsburg","state":"CA","fullName":"Pittsburg, CA","RegionID":40355},"geometry":{"type":"Point","coordinates":[-121.8847,38.028]}},{"type":"Feature","properties":{"name":"Decatur","state":"IL","fullName":"Decatur, IL","RegionID":24339},"geometry":{"type":"Point","coordinates":[-88.9524,39.8454]}},{"type":"Feature","properties":{"name":"Parker","state":"CO","fullName":"Parker, CO","RegionID":33334},"geometry":{"type":"Point","coordinates":[-104.7613,39.5185]}},{"type":"Feature","properties":{"name":"Georgetown","state":"TX","fullName":"Georgetown, TX","RegionID":45417},"geometry":{"type":"Point","coordinates":[-97.6772,30.6327]}},{"type":"Feature","properties":{"name":"Fall River","state":"MA","fullName":"Fall River, MA","RegionID":31525},"geometry":{"type":"Point","coordinates":[-71.1546,41.7011]}},{"type":"Feature","properties":{"name":"Arden-Arcade","state":"CA","fullName":"Arden-Arcade, CA","RegionID":396020},"geometry":{"type":"Point","coordinates":[-121.33537,38.656933]}},{"type":"Feature","properties":{"name":"Nashua","state":"NH","fullName":"Nashua, NH","RegionID":33031},"geometry":{"type":"Point","coordinates":[-71.4676,42.7654]}},{"type":"Feature","properties":{"name":"Suffolk","state":"VA","fullName":"Suffolk, VA","RegionID":41109},"geometry":{"type":"Point","coordinates":[-76.5836,36.7282]}},{"type":"Feature","properties":{"name":"Redmond","state":"WA","fullName":"Redmond, WA","RegionID":54089},"geometry":{"type":"Point","coordinates":[-122.1239,47.6694]}},{"type":"Feature","properties":{"name":"Asheville","state":"NC","fullName":"Asheville, NC","RegionID":50779},"geometry":{"type":"Point","coordinates":[-82.554,35.6009]}},{"type":"Feature","properties":{"name":"Glen Burnie","state":"MD","fullName":"Glen Burnie, MD","RegionID":45449},"geometry":{"type":"Point","coordinates":[-76.6251,39.1626]}},{"type":"Feature","properties":{"name":"Waukegan","state":"IL","fullName":"Waukegan, IL","RegionID":41587},"geometry":{"type":"Point","coordinates":[-87.8448,42.3636]}},{"type":"Feature","properties":{"name":"Pflugerville","state":"TX","fullName":"Pflugerville, TX","RegionID":47080},"geometry":{"type":"Point","coordinates":[-97.62,30.4394]}},{"type":"Feature","properties":{"name":"Bowie","state":"MD","fullName":"Bowie, MD","RegionID":30552},"geometry":{"type":"Point","coordinates":[-76.7312,38.943]}},{"type":"Feature","properties":{"name":"Walnut Creek","state":"CA","fullName":"Walnut Creek, CA","RegionID":34637},"geometry":{"type":"Point","coordinates":[-122.065,37.9063]}},{"type":"Feature","properties":{"name":"Whittier","state":"CA","fullName":"Whittier, CA","RegionID":14634},"geometry":{"type":"Point","coordinates":[-118.0337,33.9749]}},{"type":"Feature","properties":{"name":"Macomb","state":"MI","fullName":"Macomb, MI","RegionID":53100},"geometry":{"type":"Point","coordinates":[-82.9029,42.6741]}},{"type":"Feature","properties":{"name":"Fayetteville","state":"AR","fullName":"Fayetteville, AR","RegionID":31543},"geometry":{"type":"Point","coordinates":[-94.1574,36.0626]}},{"type":"Feature","properties":{"name":"Sioux City","state":"IA","fullName":"Sioux City, IA","RegionID":54428},"geometry":{"type":"Point","coordinates":[-96.4059,42.4967]}},{"type":"Feature","properties":{"name":"Buena Park","state":"CA","fullName":"Buena Park, CA","RegionID":10608},"geometry":{"type":"Point","coordinates":[-117.9962,33.8704]}},{"type":"Feature","properties":{"name":"Longmont","state":"CO","fullName":"Longmont, CO","RegionID":32563},"geometry":{"type":"Point","coordinates":[-105.1019,40.1672]}},{"type":"Feature","properties":{"name":"Iowa City","state":"IA","fullName":"Iowa City, IA","RegionID":5291},"geometry":{"type":"Point","coordinates":[-91.5299,41.6613]}},{"type":"Feature","properties":{"name":"Bismarck","state":"ND","fullName":"Bismarck, ND","RegionID":17040},"geometry":{"type":"Point","coordinates":[-100.7837,46.8083]}},{"type":"Feature","properties":{"name":"Alhambra","state":"CA","fullName":"Alhambra, CA","RegionID":50677},"geometry":{"type":"Point","coordinates":[-118.1268,34.0927]}},{"type":"Feature","properties":{"name":"Trenton","state":"NJ","fullName":"Trenton, NJ","RegionID":41279},"geometry":{"type":"Point","coordinates":[-74.7429,40.2171]}},{"type":"Feature","properties":{"name":"Conyers","state":"GA","fullName":"Conyers, GA","RegionID":51534},"geometry":{"type":"Point","coordinates":[-84.0177,33.6676]}},{"type":"Feature","properties":{"name":"Clifton","state":"NJ","fullName":"Clifton, NJ","RegionID":24120},"geometry":{"type":"Point","coordinates":[-74.1638,40.8584]}},{"type":"Feature","properties":{"name":"Germantown","state":"MD","fullName":"Germantown, MD","RegionID":31732},"geometry":{"type":"Point","coordinates":[-77.2717,39.1732]}},{"type":"Feature","properties":{"name":"Jackson","state":"TN","fullName":"Jackson, TN","RegionID":39133},"geometry":{"type":"Point","coordinates":[-88.8139,35.6145]}},{"type":"Feature","properties":{"name":"Clarkstown","state":"NY","fullName":"Clarkstown, NY","RegionID":37895},"geometry":{"type":"Point","coordinates":[-73.9916729,41.1342144]}},{"type":"Feature","properties":{"name":"Toms River","state":"NJ","fullName":"Toms River, NJ","RegionID":34311},"geometry":{"type":"Point","coordinates":[-74.198,39.9537]}},{"type":"Feature","properties":{"name":"Lynnwood","state":"WA","fullName":"Lynnwood, WA","RegionID":32615},"geometry":{"type":"Point","coordinates":[-122.3054,47.8279]}},{"type":"Feature","properties":{"name":"Cicero","state":"IL","fullName":"Cicero, IL","RegionID":44597},"geometry":{"type":"Point","coordinates":[-87.7539,41.8456]}},{"type":"Feature","properties":{"name":"Tustin","state":"CA","fullName":"Tustin, CA","RegionID":27491},"geometry":{"type":"Point","coordinates":[-117.8262,33.7459]}},{"type":"Feature","properties":{"name":"Ellicott City","state":"MD","fullName":"Ellicott City, MD","RegionID":31403},"geometry":{"type":"Point","coordinates":[-76.7983,39.2673]}},{"type":"Feature","properties":{"name":"Sumter","state":"SC","fullName":"Sumter, SC","RegionID":41128},"geometry":{"type":"Point","coordinates":[-80.3415,33.9204]}},{"type":"Feature","properties":{"name":"Owensboro","state":"KY","fullName":"Owensboro, KY","RegionID":33287},"geometry":{"type":"Point","coordinates":[-87.1133,37.7742]}},{"type":"Feature","properties":{"name":"Conway","state":"AR","fullName":"Conway, AR","RegionID":38004},"geometry":{"type":"Point","coordinates":[-92.4421,35.0887]}},{"type":"Feature","properties":{"name":"Hattiesburg","state":"MS","fullName":"Hattiesburg, MS","RegionID":25066},"geometry":{"type":"Point","coordinates":[-89.2903,31.3271]}},{"type":"Feature","properties":{"name":"Battle Creek","state":"MI","fullName":"Battle Creek, MI","RegionID":37303},"geometry":{"type":"Point","coordinates":[-85.1824,42.3193]}},{"type":"Feature","properties":{"name":"Spokane Valley","state":"WA","fullName":"Spokane Valley, WA","RegionID":17453},"geometry":{"type":"Point","coordinates":[-103.9288007,46.6550515]}},{"type":"Feature","properties":{"name":"Danbury","state":"CT","fullName":"Danbury, CT","RegionID":31166},"geometry":{"type":"Point","coordinates":[-73.454,41.3948]}},{"type":"Feature","properties":{"name":"Norwalk","state":"CT","fullName":"Norwalk, CT","RegionID":26222},"geometry":{"type":"Point","coordinates":[-73.4079,41.1176]}},{"type":"Feature","properties":{"name":"Watsonville","state":"CA","fullName":"Watsonville, CA","RegionID":7784},"geometry":{"type":"Point","coordinates":[-121.7529,36.9093]}},{"type":"Feature","properties":{"name":"Houma","state":"LA","fullName":"Houma, LA","RegionID":25193},"geometry":{"type":"Point","coordinates":[-90.7195,29.5958]}},{"type":"Feature","properties":{"name":"Largo","state":"FL","fullName":"Largo, FL","RegionID":12317},"geometry":{"type":"Point","coordinates":[-82.7873,27.9095]}},{"type":"Feature","properties":{"name":"Gresham","state":"OR","fullName":"Gresham, OR","RegionID":24967},"geometry":{"type":"Point","coordinates":[-122.4367,45.5067]}},{"type":"Feature","properties":{"name":"Troy","state":"MI","fullName":"Troy, MI","RegionID":7476},"geometry":{"type":"Point","coordinates":[-83.1499,42.6056]}},{"type":"Feature","properties":{"name":"Panama City","state":"FL","fullName":"Panama City, FL","RegionID":46978},"geometry":{"type":"Point","coordinates":[-85.6546,30.1601]}},{"type":"Feature","properties":{"name":"Kingsport","state":"TN","fullName":"Kingsport, TN","RegionID":32311},"geometry":{"type":"Point","coordinates":[-82.5618,36.5484]}},{"type":"Feature","properties":{"name":"Sanford","state":"FL","fullName":"Sanford, FL","RegionID":33865},"geometry":{"type":"Point","coordinates":[-81.268,28.8117]}},{"type":"Feature","properties":{"name":"Palm Coast","state":"FL","fullName":"Palm Coast, FL","RegionID":26366},"geometry":{"type":"Point","coordinates":[-81.2208,29.5541]}},{"type":"Feature","properties":{"name":"Quincy","state":"MA","fullName":"Quincy, MA","RegionID":6665},"geometry":{"type":"Point","coordinates":[-71.0023,42.2529]}},{"type":"Feature","properties":{"name":"Westland","state":"MI","fullName":"Westland, MI","RegionID":7883},"geometry":{"type":"Point","coordinates":[-83.4005,42.3238]}},{"type":"Feature","properties":{"name":"Saint George","state":"UT","fullName":"Saint George, UT","RegionID":33801},"geometry":{"type":"Point","coordinates":[-113.56,37.11]}},{"type":"Feature","properties":{"name":"Johns Creek","state":"GA","fullName":"Johns Creek, GA","RegionID":397383},"geometry":{"type":"Point","coordinates":[-84.1902,34.0182]}},{"type":"Feature","properties":{"name":"Canton","state":"GA","fullName":"Canton, GA","RegionID":37736},"geometry":{"type":"Point","coordinates":[-84.4908,34.2368]}},{"type":"Feature","properties":{"name":"Woodbridge","state":"NJ","fullName":"Woodbridge, NJ","RegionID":395557},"geometry":{"type":"Point","coordinates":[-74.2846,40.5576]}},{"type":"Feature","properties":{"name":"Kirkland","state":"WA","fullName":"Kirkland, WA","RegionID":12214},"geometry":{"type":"Point","coordinates":[-122.192,47.686]}},{"type":"Feature","properties":{"name":"Waldorf","state":"MD","fullName":"Waldorf, MD","RegionID":14446},"geometry":{"type":"Point","coordinates":[-76.9107,38.6264]}},{"type":"Feature","properties":{"name":"Dallas","state":"GA","fullName":"Dallas, GA","RegionID":24307},"geometry":{"type":"Point","coordinates":[-84.8408,33.9237]}},{"type":"Feature","properties":{"name":"Stafford","state":"VA","fullName":"Stafford, VA","RegionID":54529},"geometry":{"type":"Point","coordinates":[-77.4083,38.4221]}},{"type":"Feature","properties":{"name":"Dalton","state":"GA","fullName":"Dalton, GA","RegionID":38130},"geometry":{"type":"Point","coordinates":[-84.9702,34.7692]}},{"type":"Feature","properties":{"name":"Manteca","state":"CA","fullName":"Manteca, CA","RegionID":53148},"geometry":{"type":"Point","coordinates":[-121.2117,37.7986]}},{"type":"Feature","properties":{"name":"Camarillo","state":"CA","fullName":"Camarillo, CA","RegionID":51239},"geometry":{"type":"Point","coordinates":[-119.0376,34.2164]}},{"type":"Feature","properties":{"name":"Farmington Hills","state":"MI","fullName":"Farmington Hills, MI","RegionID":45243},"geometry":{"type":"Point","coordinates":[-83.3772,42.4853]}},{"type":"Feature","properties":{"name":"Cranston","state":"RI","fullName":"Cranston, RI","RegionID":31093},"geometry":{"type":"Point","coordinates":[-71.4371,41.781]}},{"type":"Feature","properties":{"name":"Jonesboro","state":"AR","fullName":"Jonesboro, AR","RegionID":18765},"geometry":{"type":"Point","coordinates":[-90.7035,35.8429]}},{"type":"Feature","properties":{"name":"Slidell","state":"LA","fullName":"Slidell, LA","RegionID":7101},"geometry":{"type":"Point","coordinates":[-89.7812,30.2752]}},{"type":"Feature","properties":{"name":"Greenwood","state":"IN","fullName":"Greenwood, IN","RegionID":52333},"geometry":{"type":"Point","coordinates":[-86.1067,39.6137]}},{"type":"Feature","properties":{"name":"Eau Claire","state":"WI","fullName":"Eau Claire, WI","RegionID":51835},"geometry":{"type":"Point","coordinates":[-91.4985,44.8113]}},{"type":"Feature","properties":{"name":"Town 'n' Country","state":"FL","fullName":"Town 'n' Country, FL","RegionID":126423},"geometry":{"type":"Point","coordinates":[-82.5773,28.0106]}},{"type":"Feature","properties":{"name":"Tomball","state":"TX","fullName":"Tomball, TX","RegionID":34308},"geometry":{"type":"Point","coordinates":[-95.6161,30.0972]}},{"type":"Feature","properties":{"name":"Fishers","state":"IN","fullName":"Fishers, IN","RegionID":38529},"geometry":{"type":"Point","coordinates":[-86.0139,39.9556]}},{"type":"Feature","properties":{"name":"Arlington Heights","state":"IL","fullName":"Arlington Heights, IL","RegionID":50764},"geometry":{"type":"Point","coordinates":[-87.9801,42.0813]}},{"type":"Feature","properties":{"name":"Oviedo","state":"FL","fullName":"Oviedo, FL","RegionID":6365},"geometry":{"type":"Point","coordinates":[-81.2085,28.6703]}},{"type":"Feature","properties":{"name":"Lakewood","state":"CA","fullName":"Lakewood, CA","RegionID":12292},"geometry":{"type":"Point","coordinates":[-118.1172,33.8503]}},{"type":"Feature","properties":{"name":"Mount Pleasant","state":"SC","fullName":"Mount Pleasant, SC","RegionID":12864},"geometry":{"type":"Point","coordinates":[-79.8626,32.7941]}},{"type":"Feature","properties":{"name":"Parma","state":"OH","fullName":"Parma, OH","RegionID":53812},"geometry":{"type":"Point","coordinates":[-81.7356,41.3822]}},{"type":"Feature","properties":{"name":"Gary","state":"IN","fullName":"Gary, IN","RegionID":45401},"geometry":{"type":"Point","coordinates":[-87.3371,41.6021]}},{"type":"Feature","properties":{"name":"Covina","state":"CA","fullName":"Covina, CA","RegionID":24245},"geometry":{"type":"Point","coordinates":[-117.8891,34.0878]}},{"type":"Feature","properties":{"name":"Greer","state":"SC","fullName":"Greer, SC","RegionID":24965},"geometry":{"type":"Point","coordinates":[-82.2272,34.9381]}},{"type":"Feature","properties":{"name":"Upland","state":"CA","fullName":"Upland, CA","RegionID":27512},"geometry":{"type":"Point","coordinates":[-117.6484,34.0975]}},{"type":"Feature","properties":{"name":"Deltona","state":"FL","fullName":"Deltona, FL","RegionID":24359},"geometry":{"type":"Point","coordinates":[-81.2637,28.9005]}},{"type":"Feature","properties":{"name":"Lexington","state":"NC","fullName":"Lexington, NC","RegionID":5621},"geometry":{"type":"Point","coordinates":[-80.2534,35.824]}},{"type":"Feature","properties":{"name":"Carson","state":"CA","fullName":"Carson, CA","RegionID":10723},"geometry":{"type":"Point","coordinates":[-118.2518,33.8322]}},{"type":"Feature","properties":{"name":"Simpsonville","state":"SC","fullName":"Simpsonville, SC","RegionID":40919},"geometry":{"type":"Point","coordinates":[-82.2543,34.7371]}},{"type":"Feature","properties":{"name":"Hoover","state":"AL","fullName":"Hoover, AL","RegionID":25179},"geometry":{"type":"Point","coordinates":[-74.78389525,40.22723295]}},{"type":"Feature","properties":{"name":"Schaumburg","state":"IL","fullName":"Schaumburg, IL","RegionID":33889},"geometry":{"type":"Point","coordinates":[-88.0834,42.0334]}},{"type":"Feature","properties":{"name":"Valparaiso","state":"IN","fullName":"Valparaiso, IN","RegionID":41460},"geometry":{"type":"Point","coordinates":[-87.0611,41.4731]}},{"type":"Feature","properties":{"name":"Lancaster","state":"PA","fullName":"Lancaster, PA","RegionID":398816},"geometry":{"type":"Point","coordinates":[-81.36321,28.52202]}},{"type":"Feature","properties":{"name":"Porterville","state":"CA","fullName":"Porterville, CA","RegionID":40414},"geometry":{"type":"Point","coordinates":[-119.0168,36.0652]}},{"type":"Feature","properties":{"name":"Brooklyn Park","state":"MN","fullName":"Brooklyn Park, MN","RegionID":17191},"geometry":{"type":"Point","coordinates":[-93.3444,45.1005]}},{"type":"Feature","properties":{"name":"Mountain View","state":"CA","fullName":"Mountain View, CA","RegionID":32999},"geometry":{"type":"Point","coordinates":[-122.082,37.3856]}},{"type":"Feature","properties":{"name":"Lawrence","state":"MA","fullName":"Lawrence, MA","RegionID":46179},"geometry":{"type":"Point","coordinates":[-71.1631,42.707]}},{"type":"Feature","properties":{"name":"Colonie","state":"NY","fullName":"Colonie, NY","RegionID":397629},"geometry":{"type":"Point","coordinates":[-73.995964,40.690735]}},{"type":"Feature","properties":{"name":"Apex","state":"NC","fullName":"Apex, NC","RegionID":16785},"geometry":{"type":"Point","coordinates":[-78.8506,35.7325]}},{"type":"Feature","properties":{"name":"Maryville","state":"TN","fullName":"Maryville, TN","RegionID":46431},"geometry":{"type":"Point","coordinates":[-83.9705,35.7565]}},{"type":"Feature","properties":{"name":"Turlock","state":"CA","fullName":"Turlock, CA","RegionID":54759},"geometry":{"type":"Point","coordinates":[-120.8466,37.4947]}},{"type":"Feature","properties":{"name":"Somerville","state":"MA","fullName":"Somerville, MA","RegionID":54458},"geometry":{"type":"Point","coordinates":[-71.0995,42.3876]}},{"type":"Feature","properties":{"name":"Missouri City","state":"TX","fullName":"Missouri City, TX","RegionID":53360},"geometry":{"type":"Point","coordinates":[-95.5377,29.6186]}},{"type":"Feature","properties":{"name":"Mission","state":"TX","fullName":"Mission, TX","RegionID":19411},"geometry":{"type":"Point","coordinates":[-98.3253,26.2159]}},{"type":"Feature","properties":{"name":"Denham Springs","state":"LA","fullName":"Denham Springs, LA","RegionID":11087},"geometry":{"type":"Point","coordinates":[-90.9562,30.4869]}},{"type":"Feature","properties":{"name":"Bellflower","state":"CA","fullName":"Bellflower, CA","RegionID":44116},"geometry":{"type":"Point","coordinates":[-118.1168,33.8826]}},{"type":"Feature","properties":{"name":"Richmond","state":"TX","fullName":"Richmond, TX","RegionID":47379},"geometry":{"type":"Point","coordinates":[-95.7608,29.5822]}},{"type":"Feature","properties":{"name":"Homestead","state":"FL","fullName":"Homestead, FL","RegionID":5201},"geometry":{"type":"Point","coordinates":[-80.4776,25.4687]}},{"type":"Feature","properties":{"name":"Saint Joseph","state":"MO","fullName":"Saint Joseph, MO","RegionID":40704},"geometry":{"type":"Point","coordinates":[-94.8466,39.7686]}},{"type":"Feature","properties":{"name":"Pasco","state":"WA","fullName":"Pasco, WA","RegionID":13213},"geometry":{"type":"Point","coordinates":[-119.1006,46.2396]}},{"type":"Feature","properties":{"name":"Norcross","state":"GA","fullName":"Norcross, GA","RegionID":53588},"geometry":{"type":"Point","coordinates":[-84.2135,33.9412]}},{"type":"Feature","properties":{"name":"Lodi","state":"CA","fullName":"Lodi, CA","RegionID":39483},"geometry":{"type":"Point","coordinates":[-121.2724,38.1302]}},{"type":"Feature","properties":{"name":"Smyrna","state":"GA","fullName":"Smyrna, GA","RegionID":27136},"geometry":{"type":"Point","coordinates":[-84.5147,33.884]}},{"type":"Feature","properties":{"name":"Rancho Cordova","state":"CA","fullName":"Rancho Cordova, CA","RegionID":26679},"geometry":{"type":"Point","coordinates":[-121.3027,38.5891]}},{"type":"Feature","properties":{"name":"Shelby","state":"MI","fullName":"Shelby, MI","RegionID":40868},"geometry":{"type":"Point","coordinates":[-90.7679,33.9509]}},{"type":"Feature","properties":{"name":"O Fallon","state":"MO","fullName":"O Fallon, MO","RegionID":13059},"geometry":{"type":"Point","coordinates":[-90.7,38.79]}},{"type":"Feature","properties":{"name":"Baldwin Park","state":"CA","fullName":"Baldwin Park, CA","RegionID":10241},"geometry":{"type":"Point","coordinates":[-117.9612,34.0855]}},{"type":"Feature","properties":{"name":"Spring Valley","state":"CA","fullName":"Spring Valley, CA","RegionID":41025},"geometry":{"type":"Point","coordinates":[-116.9989,32.7448]}},{"type":"Feature","properties":{"name":"Scranton","state":"PA","fullName":"Scranton, PA","RegionID":20398},"geometry":{"type":"Point","coordinates":[-75.6621,41.4087]}},{"type":"Feature","properties":{"name":"San Ramon","state":"CA","fullName":"San Ramon, CA","RegionID":20337},"geometry":{"type":"Point","coordinates":[-121.978,37.7799]}},{"type":"Feature","properties":{"name":"Deerfield Beach","state":"FL","fullName":"Deerfield Beach, FL","RegionID":4329},"geometry":{"type":"Point","coordinates":[-80.0996,26.3183]}},{"type":"Feature","properties":{"name":"Newport Beach","state":"CA","fullName":"Newport Beach, CA","RegionID":53571},"geometry":{"type":"Point","coordinates":[-117.9294,33.617]}},{"type":"Feature","properties":{"name":"Noblesville","state":"IN","fullName":"Noblesville, IN","RegionID":53585},"geometry":{"type":"Point","coordinates":[-86.0086,40.0456]}},{"type":"Feature","properties":{"name":"Salisbury","state":"NC","fullName":"Salisbury, NC","RegionID":20323},"geometry":{"type":"Point","coordinates":[-80.4742,35.671]}},{"type":"Feature","properties":{"name":"Racine","state":"WI","fullName":"Racine, WI","RegionID":54043},"geometry":{"type":"Point","coordinates":[-87.7825,42.7261]}},{"type":"Feature","properties":{"name":"Evanston","state":"IL","fullName":"Evanston, IL","RegionID":18025},"geometry":{"type":"Point","coordinates":[-87.693,42.0447]}},{"type":"Feature","properties":{"name":"Marysville","state":"WA","fullName":"Marysville, WA","RegionID":39655},"geometry":{"type":"Point","coordinates":[-122.1633,48.0627]}},{"type":"Feature","properties":{"name":"Schenectady","state":"NY","fullName":"Schenectady, NY","RegionID":40779},"geometry":{"type":"Point","coordinates":[-73.9396,42.8142]}},{"type":"Feature","properties":{"name":"Camden","state":"NJ","fullName":"Camden, NJ","RegionID":10676},"geometry":{"type":"Point","coordinates":[-75.1199,39.9448]}},{"type":"Feature","properties":{"name":"Huntington","state":"WV","fullName":"Huntington, WV","RegionID":12012},"geometry":{"type":"Point","coordinates":[-82.4452,38.4192]}},{"type":"Feature","properties":{"name":"Poughkeepsie","state":"NY","fullName":"Poughkeepsie, NY","RegionID":398360},"geometry":{"type":"Point","coordinates":[-73.9284,41.7066]}},{"type":"Feature","properties":{"name":"Temple","state":"TX","fullName":"Temple, TX","RegionID":34248},"geometry":{"type":"Point","coordinates":[-97.3428,31.0982]}},{"type":"Feature","properties":{"name":"Folsom","state":"CA","fullName":"Folsom, CA","RegionID":11462},"geometry":{"type":"Point","coordinates":[-121.1761,38.678]}},{"type":"Feature","properties":{"name":"Plymouth","state":"MN","fullName":"Plymouth, MN","RegionID":26561},"geometry":{"type":"Point","coordinates":[-93.4665,45.0065]}},{"type":"Feature","properties":{"name":"Springfield","state":"OR","fullName":"Springfield, OR","RegionID":7223},"geometry":{"type":"Point","coordinates":[-123.022,44.0462]}},{"type":"Feature","properties":{"name":"Bethlehem","state":"PA","fullName":"Bethlehem, PA","RegionID":17008},"geometry":{"type":"Point","coordinates":[-75.3787,40.6179]}},{"type":"Feature","properties":{"name":"Atascocita","state":"TX","fullName":"Atascocita, TX","RegionID":50783},"geometry":{"type":"Point","coordinates":[-95.218734,29.9782079]}},{"type":"Feature","properties":{"name":"Bremerton","state":"WA","fullName":"Bremerton, WA","RegionID":37560},"geometry":{"type":"Point","coordinates":[-122.734,47.5312]}},{"type":"Feature","properties":{"name":"Redlands","state":"CA","fullName":"Redlands, CA","RegionID":40524},"geometry":{"type":"Point","coordinates":[-117.1889,34.0557]}},{"type":"Feature","properties":{"name":"Huntington Park","state":"CA","fullName":"Huntington Park, CA","RegionID":39076},"geometry":{"type":"Point","coordinates":[-118.2251,33.9817]}},{"type":"Feature","properties":{"name":"Cheektowaga","state":"NY","fullName":"Cheektowaga, NY","RegionID":37840},"geometry":{"type":"Point","coordinates":[-78.7548,42.9034]}},{"type":"Feature","properties":{"name":"Snellville","state":"GA","fullName":"Snellville, GA","RegionID":20535},"geometry":{"type":"Point","coordinates":[-84.0199,33.8573]}},{"type":"Feature","properties":{"name":"Kendall","state":"FL","fullName":"Kendall, FL","RegionID":25372},"geometry":{"type":"Point","coordinates":[-71.08479,42.362144]}},{"type":"Feature","properties":{"name":"Brandon","state":"MS","fullName":"Brandon, MS","RegionID":10530},"geometry":{"type":"Point","coordinates":[-89.9864,32.273]}},{"type":"Feature","properties":{"name":"Petaluma","state":"CA","fullName":"Petaluma, CA","RegionID":26469},"geometry":{"type":"Point","coordinates":[-122.6365,38.2326]}},{"type":"Feature","properties":{"name":"Pharr","state":"TX","fullName":"Pharr, TX","RegionID":47082},"geometry":{"type":"Point","coordinates":[-98.1836,26.1948]}},{"type":"Feature","properties":{"name":"Alpharetta","state":"GA","fullName":"Alpharetta, GA","RegionID":16733},"geometry":{"type":"Point","coordinates":[-84.2747,34.071]}},{"type":"Feature","properties":{"name":"Saint Charles","state":"MO","fullName":"Saint Charles, MO","RegionID":40689},"geometry":{"type":"Point","coordinates":[-90.5,38.79]}},{"type":"Feature","properties":{"name":"La Mesa","state":"CA","fullName":"La Mesa, CA","RegionID":46089},"geometry":{"type":"Point","coordinates":[-117.0231,32.7678]}},{"type":"Feature","properties":{"name":"Lake Forest","state":"CA","fullName":"Lake Forest, CA","RegionID":32380},"geometry":{"type":"Point","coordinates":[-117.6892,33.647]}},{"type":"Feature","properties":{"name":"New Rochelle","state":"NY","fullName":"New Rochelle, NY","RegionID":26114},"geometry":{"type":"Point","coordinates":[-73.7826,40.9115]}},{"type":"Feature","properties":{"name":"Waipahu","state":"HI","fullName":"Waipahu, HI","RegionID":22730},